longitude,latitude,main_street,cross_street,route_number,milepoint,owner,type
-85.4993371456453,38.2706320923916,OLD HENRY,I 265 RAMP,KY-3084,1.25,KYTC,1
-85.4984789574179,38.2415894728279,SHELBYVILLE,BECKLEY WOODS,US 60,12.291,KYTC,1
-85.4935498603372,38.2405172324361,SHELBYVILLE,LAKE FOREST,US-60,12.58,KYTC,1
-85.5702122827241,38.3110020720272,BROWNSBORO,I 265 RAMP,KY-22,3.7,KYTC,1
-85.6279652674758,38.2839160242102,HERR,LIME KILN,KY-22,0.44,KYTC,1
-85.632499478084,38.2838889828842,U S HIGHWAY 42,HOLIDAY MANOR,US-42,6.13,KYTC,1
-85.6038126973631,38.2586739353754,LYNDON,NEW LA GRANGE,KY-146,0.98,KYTC,1
-85.6300103645926,38.2508229915511,BRAMTON,SHELBYVILLE,US-60,4.95,KYTC,1
-85.6281977328899,38.2506927303934,STONEHENGE,SHELBYVILLE,US-60,5.05,KYTC,1
-85.6362346896495,38.2513489029286,FAIRMEADE,SHELBYVILLE,US-60,4.61,KYTC,1
-85.6684598740601,38.2228824001095,BON AIR,PEE WEE REESE,KY-155,15.652,KYTC,1
-85.6187078465652,38.2229192941313,BROWNS,LOWE,,,METRO,1
-85.6279772783086,38.2199841167013,TAYLORSVILLE,YORKSHIRE,KY-155,13.442,KYTC,1
-85.6257853534856,38.2198410700859,BROWNS,HIKES,KY-155,13.314,KYTC,1
-85.672352830643,38.2126110023436,BARDSTOWN,GARDINER,US-31E,12.133,KYTC,1
-85.6021268254048,38.2954261781982,BROWNSBORO,BARBOUR,KY-22,1.71,KYTC,1
-85.5745836336179,38.2629596737917,ORMSBY STATION,HURSTBOURNE,KY-1747,14.76,KYTC,1
-85.6347289958909,38.281357006173,BROWNSBORO,NORTHFIELD,US-42,5.92,KYTC,1
-85.5388990604605,38.2169272396906,BLUEGRASS,BLANKENBAKER,KY-913,2.26,KYTC,1
-85.5974552560227,38.2181939846279,BLOWING TREE,TAYLORSVILLE,KY-155,11.79,KYTC,1
-85.5396137968783,38.2252064732745,BLANKENBAKER,I 64 RAMP,KY-913,2.85,KYTC,1
-85.6553934067078,38.2529051290944,BRECKENRIDGE,CHENOWETH,US-60,3.54,KYTC,1
-85.5926897069294,38.1985097078514,SIX MILE,STONY BROOK,,,METRO,1
-85.603079975087,38.1985766287947,SIX MILE,HURSTBOURNE,KY-1747,9.58,KYTC,1
-85.6340909945321,38.2242058420151,DEEBET,HILLBROOK,KY-1932,3.21,KYTC,1
-85.5754815884516,38.2286444424675,TIMBERWOOD,LINN STATION,,,JEFFERSONTOWN,1
-85.5776806133692,38.2269582112614,HURSTBOURNE,BLAIRWOOD,KY-1747,12.16,KYTC,1
-85.5781061553905,38.2253307277049,BLAIRWOOD ACCESS,HURSTBOURNE,KY-146,7.847,KYTC,1
-85.5760352213046,38.3038480288341,SPRINGHURST,SPRINGBROOKE,KY-1747,18.27,KYTC,1
-85.5753866887699,38.3069568751965,BROWNSBORO,SUMMIT PLAZA,KY-22,3.47,KYTC,1
-85.5614042823562,38.3155608849372,BALLARDSVILLE,NEW CHAMBERLAIN,KY-22,4.42,KYTC,1
-85.6675781118941,38.2013493133522,ADELE,BASHFORD MANOR,,,METRO,1
-85.6702936778536,38.1999547388388,BASHFORD MANOR,MAYO,,,METRO,1
-85.6597992278277,38.1562320099155,FERN VALLEY,SHEPHERDSVILLE,KY-2052,1.21,KYTC,1
-85.5711200603714,38.182862316433,BILLTOWN,MICHAELE,KY-1819,8.36,KYTC,1
-85.5493802222876,38.1505166001256,BILLTOWN,GELLHAUS,KY-1819,5.53,KYTC,1
-85.6051131617135,38.1689650832479,BARDSTOWN,HURSTBOURNE,US-31E,7.25,KYTC,1
-85.5849691245223,38.1452010351556,BARDSTOWN,BROOKRIDGE VILLAGE,US-31E,5.18,KYTC,1
-85.5858674320906,38.1470594895695,BARDSTOWN,CEDARLOOK,US-31E,5.33,KYTC,1
-85.5634571224705,38.1955623197198,OLD TAYLORSVILLE,SHELBY,,,JEFFERSONTOWN,1
-85.7529046036859,38.2143941378131,UNIVERSITY,I 65 RAMP,I-65,0.241,KYTC,1
-85.6992171859861,38.2773437750726,ZORN,RIVER,,,METRO,1
-85.7799503199803,38.2578034140667,18TH,MARKET,US 31W,20.554,KYTC,1
-85.7766340692924,38.2574336471018,MARKET,16TH,US 31W,20.735,KYTC,1
-85.7249427082433,38.2573199285237,ADAMS,STORY,US-42,0.455,KYTC,1
-85.7942644941208,38.2552059385663,26TH,MUHAMMAD ALI,,,METRO,1
-85.7657056357764,38.2428136772813,BRECKINRIDGE,8TH,,,METRO,1
-85.7640537517823,38.2426490390335,BRECKINRIDGE,7TH,,,METRO,1
-85.7563255268881,38.2385738040112,KENTUCKY,2ND,KY-1020,11.595,KYTC,1
-85.8071834109446,38.2373681935814,DUMESNIL,32ND,,,METRO,1
-85.7867792757615,38.2374134825534,DIXIE,OAK,,,METRO,1
-85.8005338851046,38.2367760887052,DUMESNIL,28TH,,,METRO,1
-85.7783665997293,38.2366507187665,15TH,OAK,,,METRO,1
-85.7512679079657,38.2364761672482,FLOYD,ST CATHERINE,,,METRO,1
-85.7399645017136,38.2332137323448,LOGAN,OAK,KY-864,14.615,KYTC,1
-85.7573872197556,38.2325578935826,ORMSBY,2ND,KY-1020,11.172,KYTC,1
-85.761357133168,38.2291565034938,4TH,MAGNOLIA,,,METRO,1
-85.7904851422796,38.2283030908344,DIXIE,HILL,,,METRO,1
-85.7569469729526,38.2254763748391,1ST,HILL,,,METRO,1
-85.6964901374712,38.2257173691626,BARDSTOWN,BOULEVARD NAPOLEON,US-31E,13.799,KYTC,1
-85.7621413157004,38.2246997840974,4TH,GAULBERT,,,METRO,1
-85.7067929587732,38.225100414635,NORRIS,SPEED,,,METRO,1
-85.7301583402794,38.2239891343307,EASTERN,GOSS,US-60,5.522,KYTC,1
-85.7757424532828,38.221167128061,INDUSTRY,7TH,,,METRO,1
-85.7628323889305,38.2207499410401,4TH,CARDINAL,,,METRO,1
-85.7774031425097,38.220086217813,ALGONQUIN,7TH,KY-2054,2.519,KYTC,1
-85.8179721092264,38.2154415187368,CAMP GROUND,MILLERS,KY-1934,10.12,KYTC,1
-85.7230693922333,38.2140126765415,MCKINLEY,AUDUBON PLAZA,KY-864,12.901,KYTC,1
-85.7644323546392,38.2116419202207,4TH,MONTANA,,,METRO,1
-85.7646653601857,38.2103376203237,4TH,WINKLER,US-60,3.072,KYTC,1
-85.7507179094324,38.2029359152605,CENTRAL,CRITTENDEN,KY-1631,1.038,KYTC,1
-85.5184542082173,38.2435080588319,AIKEN,SHELBYVILLE,US-60,11.2,KYTC,1
-85.488321480259,38.2389019348276,SHELBYVILLE,BECKLEY STATION,US-60,12.9,KYTC,1
-85.5061093647524,38.2970244992681,LA GRANGE,WESTPORT,KY-1447,9.24,KYTC,1
-85.6356817045868,38.2804341087629,BROWNSBORO,I 264 RAMP,US-42,5.8,KYTC,1
-85.6462567062653,38.2211065259763,FURMAN,I 264 RAMP,KY-155,14.44,KYTC,1
-85.6621749288088,38.2534504367295,BAUER,MASONIC HOME,US-60,3.185,KYTC,1
-85.6525612557404,38.2526675455118,SHELBYVILLE,WILLIS,US-60,3.7,KYTC,1
-85.6608984174179,38.2516989453523,BAUER,LEXINGTON,US-60,10.339,KYTC,1
-85.5749935487793,38.2865844025158,WESTPORT RD,WESTPORT CIR,KY-1447,5.1,KYTC,1
-85.6454639699993,38.2742194952183,BLANKENBAKER,BROWNSBORO,US-42,5.15,KYTC,1
-85.6699335137392,38.2647603889657,BROWNSBORO,COUNTRY,US-42,3.66,KYTC,1
-85.6413792007958,38.2601394720214,HUBBARDS,WESTPORT,KY-1447,0.93,KYTC,1
-85.5401665546061,38.246580498205,SHELBYVILLE,MADISON,US-60,9.68,KYTC,1
-85.5815372083472,38.2202808493589,HURSTBOURNE,I 64 RAMP,KY-1747,11.68,KYTC,1
-85.6644820934022,38.2029254605165,BARDSTOWN,BASHFORD MANOR,US-31E,11.343,KYTC,1
-85.6251048255161,38.1976097020095,BRECKENRIDGE,SIX MILE,KY-1932,1.13,KYTC,1
-85.541709180243,38.2993227177694,CHAMBERLAIN,WESTPORT,KY-1447,7.04,KYTC,1
-85.578874013549,38.2676441713653,NEW LA GRANGE,WHIPPS MILL,KY-146,3.96,KYTC,1
-85.6380516441212,38.2784701730473,BROWNSBORO,RUDY,US-42,5.65,KYTC,1
-85.6353062270067,38.2414721443236,BROWNS,KRESGE,,,METRO,1
-85.6704742877952,38.2540671016074,CANNONS,FRANKFORT,US-60,2.733,KYTC,1
-85.5439793566857,38.2450422794784,HERITAGE HILL,SHELBYVILLE,US-60,9.51,KYTC,1
-85.6220018587607,38.3232027513065,U S HIGHWAY 42,I 265 RAMP,US-42,8.95,KYTC,1
-85.6353094945818,38.2335414181915,DUTCHMANS,DUPONT,,,METRO,1
-85.5775607983635,38.3051551015271,BROWNSBORO,HURSTBOURNE,KY-22,3.29,KYTC,1
-85.5975903507776,38.2109084384474,STONY BROOK,HURSTBOURNE,KY-1747,10.55,KYTC,1
-85.5471144496277,38.2440992535695,SHELBYVILLE,BLANKENBAKER,KY-913,4.22,KYTC,1
-85.576953164481,38.242116497672,WHITTINGTON,HURSTBOURNE,KY-1747,13.2,KYTC,1
-85.5769852525228,38.2397510589372,WILLIAMSBURG,HURSTBOURNE,KY-1747,13.04,KYTC,1
-85.5769048856042,38.246431215218,SHELBYVILLE,HURSTBOURNE,US-60,7.86,KYTC,1
-85.5774509449161,38.2287928505811,LINN STATION,HURSTBOURNE,KY-1747,12.29,KYTC,1
-85.5642801128302,38.265544362217,DORSEY,HURSTBOURNE,KY-1747,15.33,KYTC,1
-85.5533179112242,38.2962426297371,TOWNE CENTER,INDIAN LAKE,KY-1447,6.39,KYTC,1
-85.6284356808548,38.2929322503502,U S HIGHWAY 42,SEMINARY,US-42,6.8,KYTC,1
-85.567446894709,38.3127254031212,BROWNSBORO,CHAMBERLAIN,KY-22,4.03,KYTC,1
-85.6147805287867,38.1236768720697,BEULAH CHURCH,I 265 RAMP,KY-864,3.37,KYTC,1
-85.6225760793623,38.1788351932372,BARDSTOWN,WATTERSON,US-31E,8.42,KYTC,1
-85.6458243846218,38.1577635187891,FERN VALLEY,POPLAR LEVEL,KY-864,6.92,KYTC,1
-85.6399785097228,38.1883167876027,BARDSTOWN,BUECHEL,US-31E,9.55,KYTC,1
-85.5920591435763,38.155173730739,FERN CREEK,FERNDALE,,,METRO,1
-85.62840628387,38.1373165120613,OUTER,VAUGHN MILL,KY-1065,9.25,KYTC,1
-85.5796103625348,38.1341524000791,BARDSTOWN,BRENTLINGER,US-31E,4.37,KYTC,1
-85.5909333471413,38.1575516835064,BARDSTOWN,FERN CREEK,US-31E,6.12,KYTC,1
-85.5899339293576,38.1554771152786,BARDSTOWN,FERNDALE,US-31E,5.96,KYTC,1
-85.6431533886633,38.1228502845441,MANSLICK,SMYRNA,KY-2845,2.0,KYTC,1
-85.6701973056086,38.096356656382,PRESTON,OLD PRESTON,KY-61,1.0,KYTC,1
-85.5746178034511,38.1254175306188,BARDSTOWN,GLENMARY FARM,US-31E,3.71,KYTC,1
-85.5841924066051,38.1435940986198,BARDSTOWN,I 265 RAMP,US-31E,4.98,KYTC,1
-85.6052927369977,38.1879302521578,HURSTBOURNE CROSSINGS,HURSTBOURNE,KY-1747,8.879,KYTC,1
-85.6700526493778,38.0883192404545,ANTLE,MUD,,,METRO,1
-85.696857459751,38.2743609758259,ZORN,I 71 RAMP,I-71,0.0,KYTC,1
-85.7863197057421,38.2599308213393,MAIN,22ND,US 31W,20.3,KYTC,1
-85.7846622284963,38.2597488628698,MAIN,21ST,US 31W,20.39,KYTC,1
-85.7763945094316,38.2588166629242,W MAIN ST,N 16TH ST,US 31W,20.845,KYTC,1
-85.7749778666356,38.257246386112,15TH,MARKET,US 31W,20.83,KYTC,1
-85.7806669324642,38.2536916139682,18TH,MUHAMMAD ALI,,,METRO,1
-85.7945024701584,38.253007566871,CHESTNUT,26TH,,,METRO,1
-85.7827127223574,38.2516925361716,CHESTNUT,19TH,,,METRO,1
-85.7879048717895,38.2509412920301,MAGAZINE,22ND,US-31W,19.68,KYTC,1
-85.7732540271655,38.247794208213,BROADWAY,13TH,US 150,1.559,KYTC,1
-85.7842426676737,38.2436620918545,DIXIE,GARLAND,,,METRO,1
-85.7879508544451,38.2410658645422,GREENWOOD,DR W J HODGE,US-31W,19.09,KYTC,1
-85.7727958399553,38.2408695133511,KENTUCKY,12TH,,,METRO,1
-85.7596393301724,38.2389354133575,4TH,KENTUCKY,,,METRO,1
-85.757981148841,38.2387561817504,KENTUCKY,3RD,KY-1020,11.49,KYTC,1
-85.7903646993794,38.2365184656001,DUMESNIL,22ND,US-31W,18.665,KYTC,1
-85.7871997166637,38.236384058865,DIXIE,DUMESNIL,,,METRO,1
-85.7736157500363,38.2362345952724,OAK,12TH,,,METRO,1
-85.7491046227612,38.2362193675237,PRESTON,ST CATHERINE,KY-61,11.685,KYTC,1
-85.7394413448167,38.2362471846873,KENTUCKY,LOGAN,KY-864,14.872,KYTC,1
-85.7603287982882,38.2350211462358,4TH,OAK,,,METRO,1
-85.7570064624163,38.2347221488077,OAK,2ND,KY-1020,11.372,KYTC,1
-85.7494757040665,38.2340595569917,OAK,PRESTON,KY-61,11.525,KYTC,1
-85.7640301874238,38.2331655762869,ORMSBY,6TH,,,METRO,1
-85.7590503827048,38.2327116634903,ORMSBY,3RD,KY-1020,11.171,KYTC,1
-85.7545552806631,38.2294738476458,BROOK,WOODBINE,,,METRO,1
-85.7602617073706,38.2258278165809,HILL,3RD,KY-1020,10.7,KYTC,1
-85.7263005801132,38.2253637889879,CASTLEVALE,EASTERN,US-60,5.759,KYTC,1
-85.6961238827975,38.223517787216,BOULEVARD NAPOLEON,DOUGLASS,,,METRO,1
-85.7959927963789,38.2146876145851,DIXIE,MILLERS, US-31W,17.04,KYTC,1
-85.7170450933268,38.2101927391726,NIGHTINGALE,POPLAR LEVEL,KY-864,12.471,KYTC,1
-85.8022501892702,38.2007887682918,DIXIE,FARNSLEY, US-31W,16.02,KYTC,1
-85.7096390601335,38.2014042767493,MERCER,POPLAR LEVEL,KY-864,11.747,KYTC,1
-85.7907829770621,38.1965453588228,BERRY,POWELL,US-60,1.034,KYTC,1
-85.8137132983717,38.1944866025782,CRUMS,JANELL,KY-2049,1.35,KYTC,1
-85.5811482677354,38.246743980344,WHITTINGTON,SHELBYVILLE,US-60,7.63,KYTC,1
-85.8088050788773,38.245840663045,LOUIS COLEMAN JR,GARLAND,,,METRO,1
-85.8076930361264,38.2567082396965,LOUIS COLEMAN JR,MUHAMMAD ALI,,,METRO,1
-85.806876239683,38.2609310719971,LOUIS COLEMAN JR,MARKET,,,METRO,1
-85.5425208228744,38.2307614779871,MARTIN HOUSE,WATTERSON,KY-913,3.26,KYTC,1
-85.476642612597,38.1908225869825,TAYLORSVILLE LAKE,TAYLORSVILLE,KY-155,4.26,KYTC,1
-85.5158835105639,38.2898711401733,CHAMBERLAIN,COLLINS,,,METRO,1
-85.5096184783951,38.2425667823395,SHELBYVILLE,URTON,US-60,11.68,KYTC,1
-85.5062498273154,38.268013378229,OLD HENRY,I 265 RAMP,KY-3084,0.838,KYTC,1
-85.6120159352079,38.3545831585532,COVERED BRIDGE,U S HIGHWAY 42,US-42,11.22,KYTC,1
-85.5537638651956,38.2212561760905,BLUEGRASS,WATTERSON,KY-1819,11.77,KYTC,1
-85.5404220928277,38.2265888776422,OLD BLANKENBAKER,BLANKENBAKER,KY-913,2.95,KYTC,1
-85.5723217178215,38.2876095798876,WESTPORT,HURSTBOURNE,KY-1447,5.25,KYTC,1
-85.6542302829194,38.2514476897759,BRECKENRIDGE,WILLIS,KY-1932,5.4,KYTC,1
-85.6519727121805,38.248678023155,BRECKENRIDGE,GRANDVIEW,KY-1932,5.18,KYTC,1
-85.5770737936694,38.22239328524,BLUEGRASS,PLANTSIDE,,,JEFFERSONTOWN,1
-85.6068427312726,38.2189820954427,LOWE,TAYLORSVILLE,KY-155,12.3,KYTC,1
-85.5379520502449,38.2048413782146,ELECTRON,BLANKENBAKER,KY-913,1.44,KYTC,1
-85.6152108103098,38.2007122383117,SUMMERFIELD,MANNER DALE,,,METRO,1
-85.5778741505951,38.2700423212163,ASHMOOR,LA GRANGE,KY-146,3.23,KYTC,1
-85.5755914212587,38.2650973826974,CORPORATE CAMPUS,ORMSBY STATION,,,METRO,1
-85.5797899436685,38.2053409670842,PATTI,TAYLORSVILLE,KY-155,10.46,KYTC,1
-85.5707101527995,38.198674255862,COLLEGE,OLD SIX MILE,KY-155,9.77,KYTC,1
-85.6368512637897,38.279419717663,BROWNSBORO,I 264 RAMP,US-42,5.73,KYTC,1
-85.6066742934079,38.2488326543411,CHRISTIAN,SHELBYVILLE,US-60,6.23,KYTC,1
-85.658317663148,38.222173648373,DUTCHMANS,TAYLORSVILLE,KY-155,15.1,KYTC,1
-85.5646705658407,38.2454813634358,SHELBYVILLE,DORSEY,US-60,8.53,KYTC,1
-85.5470291650166,38.2979229347141,WESTPORT,I 265 RAMP,KY-1447,6.75,KYTC,1
-85.5592224073407,38.2937536496279,FREYS HILL,SPRINGHURST,KY-1447,6.03,KYTC,1
-85.6428262645826,38.2374889174241,BRECKENRIDGE,KRESGE,KY-1932,4.25,KYTC,1
-85.5077828320741,38.1891075006213,TAYLORSVILLE,I 265 RAMP,KY-155,6.06,KYTC,1
-85.6598293685741,38.1504310065315,MILE OF SUNSHINE,SHEPHERDSVILLE,KY-2052,0.81,KYTC,1
-85.5989479719233,38.1649074775022,BARDSTOWN,HUDSON,US-31E,6.8,KYTC,1
-85.5959821271481,38.1629588920532,BARDSTOWN,FAIRGROUND,US-31E,6.59,KYTC,1
-85.5480394967717,38.1961684066657,BLANKENBAKER,BLANKENBAKER ACCESS,KY 913,0.0,KYTC,1
-85.570602739448,38.190943254149,WATTERSON,RUCKRIEGEL,,,METRO,1
-85.6589458230137,38.1347408571083,APPLEGATE,SHEPHERDSVILLE,,,METRO,1
-85.5773951785203,38.1304431617796,BARDSTOWN,COLONEL HANCOCK,US-31E,4.09,KYTC,1
-85.6939784159541,38.2707645646582,RIVERWOOD,ZORN,,,METRO,1
-85.7932593330034,38.2634056956947,DUNCAN,26TH,,,METRO,1
-85.7796996062092,38.2591913896914,18TH,MAIN,US 31W,20.662,KYTC,1
-85.7865663607051,38.2585418534895,MARKET,22ND,US 31W,20.2009,KYTC,1
-85.7046429231613,38.2588211760479,BROWNSBORO,CLIFTON,US-42,1.685,KYTC,1
-85.7752196669579,38.2558446342667,15TH,JEFFERSON,,,METRO,1
-85.7860148871275,38.2520657459928,CHESTNUT,DR W J HODGE,US-31W,19.846,KYTC,1
-85.7810569507147,38.2514996892623,CHESTNUT,18TH,,,METRO,1
-85.7999401015046,38.2496230358187,BROADWAY,29TH,,,METRO,1
-85.7206978960002,38.250596307309,LEXINGTON,PAYNE,,,METRO,1
-85.7982821634455,38.2495737892946,BROADWAY,28TH,,,METRO,1
-85.788559898163,38.2472140493591,MAPLE,22ND,US-31W,19.42,KYTC,1
-85.763685088452,38.244718237182,7TH,YORK,,,METRO,1
-85.7891084150447,38.2440922390248,GARLAND,22ND,US-31W,19.2,KYTC,1
-85.7672077895943,38.2442912912721,CAWTHON,9TH,,,METRO,1
-85.7558081176835,38.2415402128222,BRECKINRIDGE,2ND,KY-1020,11.8,KYTC,1
-85.7541459670913,38.2413606340491,W BRECKINRIDGE ST,S 1ST ST,,,METRO,1
-85.7546670058394,38.2383981345529,1ST,KENTUCKY,,,METRO,1
-85.7902727624413,38.2374580835039,OAK,22ND,US-31W,18.747,KYTC,1
-85.759906353184,38.2374168180391,4TH,ST CATHERINE,,,METRO,1
-85.7582469261615,38.2372386366173,ST CATHERINE,3RD,KY-1020,11.49,KYTC,1
-85.7532790769041,38.2367008991549,BROOK,ST CATHERINE,,,METRO,1
-85.7553410430205,38.2345664902377,1ST,OAK,,,METRO,1
-85.7318081589434,38.2343831185406,ST CATHERINE,SCHILLER,,,METRO,1
-85.7397991073777,38.2342108870728,LOGAN,MARY,KY-864,14.691,KYTC,1
-85.7597079233367,38.2289794143631,MAGNOLIA,3RD,KY-1020,10.912,KYTC,1
-85.7583702301701,38.2269527099403,BURNETT,2ND,KY-1020,10.784,KYTC,1
-85.7550627175097,38.2265949381107,BROOK,BURNETT,,,METRO,1
-85.7552891630371,38.2252996753205,BROOK,HILL,,,METRO,1
-85.7623729733392,38.2233896762981,4TH,LEE,,,METRO,1
-85.7607169353563,38.2232126914367,LEE,3RD,KY-1020,10.508,KYTC,1
-85.811707049227,38.22187829383,CANE RUN,COMMERCE CENTER,KY-1934,11.28,KYTC,1
-85.7630575165239,38.2194824846561,BRANDEIS,4TH,,,METRO,1
-85.7551054968592,38.21462089217,FLOYD,UNIVERSITY,,,METRO,1
-85.7870844259237,38.2096258063524,ARCADE,7TH STREET,KY-1931,9.62,KYTC,1
-85.7151771486571,38.207663369189,FINCASTLE,POPLAR LEVEL,KY-864,12.268,KYTC,1
-85.7363101651596,38.2049585950974,HESS,PRESTON,KY-61,9.332,KYTC,1
-85.5261894589444,38.2462773314475,JUNEAU,SHELBYVILLE,US-60,10.73,KYTC,1
-85.5242920059551,38.3042354170978,COLLINS,WESTPORT,KY-1447,8.03,KYTC,1
-85.6296228021137,38.2890905796177,LIME KILN,U S HIGHWAY 42,US-42,6.52,KYTC,1
-85.57761102274,38.2860389792358,GOOSE CREEK,WESTPORT,KY-1447,4.94,KYTC,1
-85.6222855383342,38.2663388067552,WASHBURN,WESTPORT,KY-1447,2.09,KYTC,1
-85.6069556953987,38.2620455730655,LYNDON,LA GRANGE,KY-2050,0.27,KYTC,1
-85.6399980059177,38.2516485389406,HUBBARDS,SHELBYVILLE,US-60,4.41,KYTC,1
-85.6472732985666,38.2522455155441,BROWNS,SHELBYVILLE,US-60,4.04,KYTC,1
-85.5396754611051,38.2453504411394,MAIN,MADISON,,,MIDDLETOWN,1
-85.6477253479261,38.243477618781,BRECKENRIDGE,WINCHESTER,KY-1932,4.74,KYTC,1
-85.6587985672862,38.2364495526858,CANNONS,I 64 RAMP,KY-2048,1.325,KYTC,1
-85.5723678160216,38.2165963829366,BUNSEN PKY,PLANTSIDE DR,,,JEFFERSONTOWN,1
-85.6424638278376,38.246126133545,BROWNS,WINCHESTER,,,METRO,1
-85.6340386898918,38.2391560262328,BROWNS,SHERBURN,,,METRO,1
-85.6305074649298,38.22015762339,BRECKENRIDGE,TAYLORSVILLE,KY-155,13.59,KYTC,1
-85.62982080611,38.2360402406981,BROWNS,DUTCHMANS,,,METRO,1
-85.631669335613,38.2345524552806,DUTCHMANS,DUPONT,,,METRO,1
-85.6408173189699,38.2349292624281,BRECKENRIDGE,DUTCHMANS,KY-1932,4.05,KYTC,1
-85.5395277393942,38.3176930935698,BALLARDSVILLE,MURPHY,KY-22,5.64,KYTC,1
-85.5910781679698,38.2155178497232,TAYLORSVILLE,HURSTBOURNE,KY-155,11.4,KYTC,1
-85.59564263902,38.212017104603,HURSTBOURNE,GREENE,KY-1747,10.68,KYTC,1
-85.5868137139562,38.2115745784884,SIX MILE,TAYLORSVILLE,KY-155,11.03,KYTC,1
-85.6505811247168,38.2259755538957,CANNONS,DUTCHMANS,KY-2048,0.485,KYTC,1
-85.6544495609707,38.2217930195334,TAYLORSVILLE,I 264 RAMP,KY-155,14.88,KYTC,1
-85.5592130052594,38.2450550360854,LA FONTENAY,MOSER,US-60,8.83,KYTC,1
-85.5238397428083,38.1870580861515,TAYLORSVILLE,TUCKER STATION,KY 155,7.588,KYTC,1
-85.4422613565056,38.1196233635129,DRY RIDGE,NAPIER,,,METRO,1
-85.5160247855651,38.1877609192479,STONE LAKES,TAYLORSVILLE,KY-155,6.45,KYTC,1
-85.5822138751519,38.1395204093959,BARDSTOWN,I 265 RAMP,US-31E,7.77,KYTC,1
-85.6268561397661,38.1812120057949,BARDSTOWN,BRECKENRIDGE,US-31E,8.69,KYTC,1
-85.6598575835744,38.1643998956178,RANGELAND,SHEPHERDSVILLE,KY-2052,1.78,KYTC,1
-85.6258181265124,38.1898821403246,REDDING,MEADOW RIDGE,KY-1932,0.6,KYTC,1
-85.5872554780658,38.1499454991423,BARDSTOWN,BEULAH CHURCH,US-31E,5.5,KYTC,1
-85.6418979816959,38.1379584388873,OUTER LOOP,SMYRNA PKWY,KY-1065,8.52,KYTC,1
-85.6066884156386,38.1834980350759,WATTERSON,HURSTBOURNE,KY-1747,8.52,KYTC,1
-85.6877139762741,38.2014784308818,NEWBURG,I 264 RAMP,KY-1703,2.2,KYTC,1
-85.6825356395875,38.2896610694078,INDIAN HILLS,RIVER,,,METRO,1
-85.7774516805209,38.2620064963542,BANK,17TH,,,METRO,1
-85.79357098592,38.2607379241834,MAIN,26TH,,,METRO,1
-85.7937372956105,38.259508433609,MARKET,26TH,,,METRO,1
-85.7849114927686,38.2583584914192,MARKET,DR W J HODGE,US 31W,20.401,KYTC,1
-85.7868141950062,38.2571475447126,JEFFERSON,22ND,US-31W,20.112,KYTC,1
-85.7872922175691,38.2544316031197,22ND,MUHAMMAD ALI,US-31W,19.923,KYTC,1
-85.7773527114803,38.2533268208719,16TH,MUHAMMAD ALI,,,METRO,1
-85.8082040399934,38.2498845191412,BROADWAY,LOUIS COLEMAN JR,,,METRO,1
-85.8057456865795,38.2498235722718,BROADWAY,32ND,,,METRO,1
-85.7798546120352,38.2487137922036,BROADWAY,17TH,US 150,1.192,KYTC,1
-85.778212091557,38.2484850327365,BROADWAY,16TH,US 150,1.283,KYTC,1
-85.7699438129221,38.2473356077927,BROADWAY,11TH,US 150,1.72,KYTC,1
-85.7620258640312,38.2445582994401,6TH,YORK,,,METRO,1
-85.7554066664285,38.2438236788525,2ND,YORK,KY-1020,11.996,KYTC,1
-85.7886095592434,38.2373111042064,OAK,DR W J HODGE,US-31W,18.83,KYTC,1
-85.7565944730915,38.2370605133843,ST CATHERINE,2ND,KY-1020,11.507,KYTC,1
-85.7830200715731,38.2360179521276,DUMESNIL,17TH,,,METRO,1
-85.7586713611574,38.2348733275766,OAK,3RD,KY-1020,11.316,KYTC,1
-85.7536788293809,38.2344181476092,BROOK,OAK,,,METRO,1
-85.7516602390164,38.2342314530955,FLOYD,OAK,,,METRO,1
-85.7607074253923,38.2328637724974,4TH,ORMSBY,,,METRO,1
-85.754165550806,38.2316704823849,BROOK,ORMSBY,,,METRO,1
-85.7690043241186,38.2267679776952,HILL,7TH,,,METRO,1
-85.8052335502682,38.2240742440388,ALGONQUIN,BEECH,KY-2054,0.95,KYTC,1
-85.7925095350627,38.2231697781913,ALGONQUIN,DIXIE,KY-2054,1.64,KYTC,1
-85.7590591608645,38.2230357056341,LEE,2ND,KY-1020,10.513,KYTC,1
-85.7106760575471,38.2229777090516,NEWBURG,SPEED,KY-1703,4.287,KYTC,1
-85.6774213085551,38.2178132766064,BARDSTOWN,TYLER,US-31E,12.593,KYTC,1
-85.7829267045615,38.2148256014913,CENTRAL,7TH STREET,KY-1931,10.04,KYTC,1
-85.8105045508988,38.2376556562904,LOUIS COLEMAN JR,DUMESNIL,,,METRO,1
-85.5121903635933,38.2428461931047,PARK PLACE,SHELBYVILLE,US-60,10.92,KYTC,1
-85.5146582015776,38.2845361462739,LA GRANGE,I 265 RAMP,KY-146,7.28,KYTC,1
-85.5134637711605,38.2533692423473,AIKEN,ENGLISH STATION,,,METRO,1
-85.4905253368757,38.2741506144838,OLD HENRY,BUSH FARM,KY-3084,1.79,KYTC,1
-85.5024045765911,38.2419149221723,SHELBYVILLE,I 265 RAMP,US-60,12.07,KYTC,1
-85.6129958792423,38.352282724464,HUNTING CREEK,U S HIGHWAY 42,US-42,11.05,KYTC,1
-85.6394382458322,38.2571251331076,HUBBARDS,LEDYARD,,,METRO,1
-85.5315047914737,38.2486418540988,EVERGREEN,SHELBYVILLE,US-60,10.39,KYTC,1
-85.6593123120675,38.2380565964632,CANNONS,WINCHESTER,KY-2048,1.45,KYTC,1
-85.6285909325742,38.2181548583249,BRECKENRIDGE,HIKES,KY-1932,2.695,KYTC,1
-85.6265674802229,38.2086878724167,BRECKENRIDGE,SUDBURY,KY-1932,1.99,KYTC,1
-85.6666711303965,38.205642336104,BARDSTOWN,HEATHER,US-31E,11.563,KYTC,1
-85.6599997920989,38.1990449618004,BARDSTOWN,HIKES,KY-2251,1.0,KYTC,1
-85.5390187737036,38.214602433933,BLANKENBAKER,COMMONWEALTH,KY-913,2.11,KYTC,1
-85.5926822388638,38.3004414779663,BROWNSBORO,GOOSE CREEK,KY-22,2.33,KYTC,1
-85.619499251243,38.2195404526809,MCMAHAN,TAYLORSVILLE,KY-155,12.987,KYTC,1
-85.616111987281,38.2193867373212,HOUSTON,TAYLORSVILLE,,,METRO,1
-85.6669339132404,38.2496222579532,CANNONS,LEXINGTON,US-60,9.968,KYTC,1
-85.5768699450828,38.2035824069716,MERIONETH,TAYLORSVILLE,KY-155,10.26,KYTC,1
-85.6225622068987,38.3215370896525,U S HIGHWAY 42,WOLF PEN BRANCH,US-42,8.8,KYTC,1
-85.639823817067,38.230978404061,DUTCHMANS PKY,DUTCHMANS LN,,,METRO,1
-85.5841421366253,38.2189148611048,BUNSEN,HURSTBOURNE,KY-1747,11.46,KYTC,1
-85.5439759507159,38.2359084468086,FINCHLEY,BLANKENBAKER,KY-913,3.63,KYTC,1
-85.5783423817514,38.2246364878386,HURSTBOURNE,I 64 RAMP,KY-1747,12.0,KYTC,1
-85.5800014479279,38.3090841358571,SPRINGDALE,PARK PLAZA,,,METRO,1
-85.6378990914157,38.1872153970998,BARDSTOWN,FEGENBUSH,US-31E,9.44,KYTC,1
-85.6531701709918,38.1781917429216,PROGRESS,BUECHEL BANK,,,METRO,1
-85.6599193588886,38.1486146651726,SHEPHERDSVILLE,WHISPERING HILLS,KY-2052,0.69,KYTC,1
-85.6156588181044,38.1385876922463,FEGENBUSH,WATTERSON,KY-1065,10.09,KYTC,1
-85.6694673955042,38.1377805802206,JUDGE,OUTER,KY-1065,7.0,KYTC,1
-85.6691694396026,38.0928339129717,MUD,PRESTON,KY-61,0.65,KYTC,1
-85.6653385753859,38.1846238150615,INDIAN,NEWBURG,KY-1703,0.5,KYTC,1
-85.8160940796532,38.2626419256995,41ST,MARKET,,,METRO,1
-85.7939495217827,38.2579405296557,JEFFERSON,26TH,,,METRO,1
-85.7768627121342,38.2560288021223,JEFFERSON,16TH,,,METRO,1
-85.7914925689938,38.2549014883748,24TH,MUHAMMAD ALI,,,METRO,1
-85.787673937697,38.252247662442,CHESTNUT,22ND,US-31W,19.95,KYTC,1
-85.7862502062442,38.2507594897568,MAGAZINE,DR W J HODGE,US-31W,19.76,KYTC,1
-85.7188736644792,38.2515777430356,PAYNE,SPRING,,,METRO,1
-85.794883151354,38.2494550512548,BROADWAY,26TH,,,METRO,1
-85.7865291879993,38.2491716684047,BROADWAY,DR W J HODGE,US 150,0.825,KYTC,1
-85.7587054572427,38.2442478194795,4TH,LIBRARY,,,METRO,1
-85.7570641164055,38.2440465564859,LIBRARY,3RD,KY-1020,11.968,KYTC,1
-85.7995700509453,38.2422770450558,GREENWOOD,28TH,,,METRO,1
-85.7896123942796,38.241212529479,GREENWOOD,22ND,US-31W,19.19,KYTC,1
-85.7776067762813,38.2413550958238,15TH,KENTUCKY,,,METRO,1
-85.8069500182492,38.2387041691512,32ND,VIRGINIA,,,METRO,1
-85.7903938951142,38.2348985624692,22ND,WILSON,US-31W,18.598,KYTC,1
-85.7474909253191,38.2342029512108,JACKSON,OAK,KY-61,11.524,KYTC,1
-85.7480774502087,38.2307964456176,JACKSON,ORMSBY,KY-61,11.292,KYTC,1
-85.7564101170496,38.2285908288619,1ST,MAGNOLIA,,,METRO,1
-85.761913015243,38.2260045265687,4TH,HILL,,,METRO,1
-85.7558072919444,38.2226877048879,BROOK,1ST,,,METRO,1
-85.7375096525811,38.2217294990993,BURNETT,TEXAS,,,METRO,1
-85.784812210198,38.2128735410472,7TH STREET,WATHEN,KY-1931,9.88,KYTC,1
-85.7209553793764,38.2119815337923,HESS,POPLAR LEVEL,KY-864,12.716,KYTC,1
-85.7129596262073,38.2053976266101,BELMAR,POPLAR LEVEL,KY-864,12.071,KYTC,1
-85.5123132510181,38.2894652807025,CHAMBERLAIN,FACTORY,KY-146,7.55,KYTC,1
-85.6729759980753,38.2948693798332,BLANKENBAKER,RIVER,,,METRO,1
-85.6450741337721,38.2520732114618,SHELBYVILLE,THIERMAN,US-60,4.12,KYTC,1
-85.5787725867187,38.2586992907375,TAMARISK,HURSTBOURNE,KY-1747,14.39,KYTC,1
-85.6236201130533,38.2502716362532,SHELBYVILLE,TEN PIN,US-60,5.3,KYTC,1
-85.6133297541066,38.2494070562408,NORWOOD,OXMOOR,US-60,5.86,KYTC,1
-85.6224023995426,38.2025785461094,BRECKENRIDGE,MANNER DALE,KY-1932,1.5,KYTC,1
-85.5325692296081,38.3020410765941,MURPHY,WESTPORT,KY-1447,7.56,KYTC,1
-85.6156531780486,38.2702136277234,HERR,WESTPORT,KY-1447,2.67,KYTC,1
-85.6349407602314,38.2145656031552,HIKES,ROSS,,,METRO,1
-85.6374700811969,38.2399337331642,BROWNS,KRESGE,,,METRO,1
-85.5591636628168,38.2081693054308,PLANTSIDE,WATTERSON,KY-1819,10.8,KYTC,1
-85.56803746804,38.2646420126172,ORMSBY STATION,HURSTBOURNE,KY-1747,15.13,KYTC,1
-85.5770154915801,38.2339489950339,TIMBERWOOD,HURSTBOURNE,KY-1747,12.64,KYTC,1
-85.5732877229861,38.2461306014145,WILDWOOD,SHELBYVILLE,US-60,8.06,KYTC,1
-85.5642782395955,38.2709256343894,LA GRANGE,HURSTBOURNE RAMP,KY-146,3.59,KYTC,1
-85.5890400071819,38.2809165045325,HERMITAGE,WESTPORT,KY-1447,4.2,KYTC,1
-85.6174808780598,38.3424371467185,FOX HARBOR,U S HIGHWAY 42,US-42,10.33,KYTC,1
-85.6632619594936,38.1968939093517,HIKES,CHAMPIONS TRACE,KY-2052,4.07,KYTC,1
-85.6526658866415,38.1950549297469,BARDSTOWN,SIX MILE,KY-2251,0.5,KYTC,1
-85.6652576817014,38.1379559356949,OUTER,ROBBS,KY-1065,7.23,KYTC,1
-85.6703062534132,38.1038316670321,COOPER CHAPEL,PRESTON CROSSING,,,METRO,1
-85.5617079521574,38.1906221030928,TAYLORSVILLE,RUCKRIEGEL,KY-155,9.02,KYTC,1
-85.596022423279,38.1837624827986,WATTERSON,STONY BROOK,,,METRO,1
-85.6676847240675,38.0875049823836,ANTLE,PRESTON,KY-61,0.27,KYTC,1
-85.7747401646545,38.2586364115084,W MAIN ST,N 15TH ST,US 31W,20.934,KYTC,1
-85.7801951669807,38.2564060737393,18TH,JEFFERSON,,,METRO,1
-85.7972268724222,38.25553886903,28TH,MUHAMMAD ALI,,,METRO,1
-85.7856336222535,38.2542529359959,DR W J HODGE,MUHAMMAD ALI,US-31W,20.1,KYTC,1
-85.797607857086,38.2533545587205,CHESTNUT,28TH,,,METRO,1
-85.7756989101874,38.2531458908287,15TH,MUHAMMAD ALI,,,METRO,1
-85.8011499447325,38.2524175657581,MAGAZINE,30TH,,,METRO,1
-85.776083104993,38.2509599001006,CHESTNUT,15TH,,,METRO,1
-85.8151182816856,38.2501358750212,BROADWAY,38TH,,,METRO,1
-85.77655266609,38.2482592176583,BROADWAY,15TH,US 150,1.373,KYTC,1
-85.7716316430918,38.2475686987046,BROADWAY,12TH,US 150,1.649,KYTC,1
-85.7869013670479,38.247051364774,MAPLE,DR W J HODGE,US-31W,19.5,KYTC,1
-85.7990917114389,38.2449733154004,GARLAND,28TH,,,METRO,1
-85.7603761817221,38.24439632667,5TH,YORK,,,METRO,1
-85.7591180437048,38.2418975973469,BRECKINRIDGE,4TH,,,METRO,1
-85.7963472185173,38.236943781233,DUMESNIL,26TH,,,METRO,1
-85.7549406319616,38.236902793772,1ST,ST CATHERINE,,,METRO,1
-85.74729750028,38.2353345345962,JACKSON,ST CATHERINE,KY-61,11.616,KYTC,1
-85.7048424168522,38.2307913296671,BARDSTOWN,BONNYCASTLE,US-31E,14.383,KYTC,1
-85.7928536947276,38.2288840936344,HILL,22ND,US-31W,18.16,KYTC,1
-85.7020777656014,38.2291066963528,BARDSTOWN,MARYLAND,US-31E,14.192,KYTC,1
-85.7751709794537,38.2274273911153,HILL,12TH,,,METRO,1
-85.7567198286293,38.2267785161654,W BURNETT AVE,S 1ST ST,,,METRO,1
-85.7951035234378,38.2233491800709,ALGONQUIN,22ND,US-31W,17.734,KYTC,1
-85.8124564764548,38.2210920620498,BELLS,CANE RUN,KY-1934,11.21,KYTC,1
-85.728866884499,38.2199130687925,CLARKS,POPLAR LEVEL,KY-864,13.415,KYTC,1
-85.7640397867727,38.2138714117483,4TH,INDUSTRY,,,METRO,1
-85.7512556030796,38.2115773151175,CRITTENDEN,EASTERN,US-60,4.038,KYTC,1
-85.7629850829311,38.2101529182224,3RD,WINKLER,US-60,3.157,KYTC,1
-85.765342818964,38.2064156515394,4TH,HEYWOOD,,,METRO,1
-85.7624530287898,38.1995159258909,GARRETT,TULANE,,,METRO,1
-85.7827522105615,38.1985913569749,LONGFIELD,TAYLOR,US-60,1.62,KYTC,1
-85.5105894846762,38.2454078997078,DATA VAULT,ENGLISH STATION,,,METRO,1
-85.5047078701445,38.2421080105623,SHELBYVILLE,I 265 RAMP,US-60,11.97,KYTC,1
-85.444207237842,38.2358765986037,FLAT ROCK,SHELBYVILLE,US 60,15.426,KYTC,1
-85.6575797307328,38.2346899499096,CANNONS,I 64 RAMP,KY-2048,10.53,KYTC,1
-85.6203396415981,38.3383445070398,U S HIGHWAY 42,TIMBER RIDGE,US-42,10.02,KYTC,1
-85.6119519375559,38.2542341453856,NEW LA GRANGE,WASHBURN,KY-146,0.45,KYTC,1
-85.6658588661835,38.2658223287555,BROWNSBORO,CHENOWETH,US-42,3.89,KYTC,1
-85.6735162354859,38.2140735812852,BARDSTOWN,BRIGHTON,US-31E,12.253,KYTC,1
-85.6706585763567,38.2105212000464,BARDSTOWN,I 264 RAMP,I-264,15.674,KYTC,1
-85.668997455028,38.208429810815,BARDSTOWN,GOLDSMITH,US-31E,11.773,KYTC,1
-85.6610308021941,38.1983731214427,BUECHEL,HIKES,US-31E,10.97,KYTC,1
-85.6142796565529,38.2710214828158,LYNDON,WESTPORT,KY-1447,3.0,KYTC,1
-85.579183116568,38.2514429527648,HURSTBOURNE PKY,HURSTBOURNE TRCE,KY-1747,13.87,KYTC,1
-85.5988587362267,38.2481825389976,LYNDON,SHELBYVILLE,US-60,6.66,KYTC,1
-85.6393859041267,38.2119724261253,FURMAN,HIKES,,,METRO,1
-85.5388390694672,38.210333772461,PLANTSIDE,BLANKENBAKER,KY-913,1.81,KYTC,1
-85.6173469468564,38.2497566770362,SHELBYVILLE,I 264 RAMP,US-60,5.64,KYTC,1
-85.6252290182763,38.2504214768488,SHELBYVILLE,SHERBURN,US-60,5.21,KYTC,1
-85.5597961539037,38.2027936401488,ELECTRON,WATTERSON,KY-1819,10.43,KYTC,1
-85.5869891850193,38.2175644066203,S HURSTBOURNE PKY,HURSTBOURNE,KY-1747,11.29,KYTC,1
-85.5728933823251,38.3090118662037,BROWNSBORO,I 265 RAMP,KY-22,3.66,KYTC,1
-85.6477067485615,38.1907331696683,BUECHEL BANK,BUECHEL,US-31E,10.04,KYTC,1
-85.6593823830485,38.1787821690888,BUECHEL BANK,SHEPHERDSVILLE,KY-1703,0.0,KYTC,1
-85.6599756245171,38.1600376936613,POPLAR LEVEL,SHEPHERDSVILLE,KY-864,7.42,KYTC,1
-85.6037354686152,38.1958867782985,HURSTBOURNE,AMBROSSE,KY-1747,9.39,KYTC,1
-85.6725969626033,38.1035119733648,COOPER CHAPEL,PRESTON,KY-61,1.4,KYTC,1
-85.6044304932903,38.1711374953043,STONY BROOK,HURSTBOURNE,KY-1747,7.64,KYTC,1
-85.568494047621,38.1923347883736,BILLTOWN,MAPLE,,,JEFFERSONTOWN,1
-85.565290368502,38.18843704826,GAUDET,RUCKRIEGEL,KY-1819,9.12,KYTC,1
-85.8075395449995,38.2544642484307,34TH,RIVER PARK,,,METRO,1
-85.6857690533914,38.2606039787168,BROWNSBORO,HILLCREST,US-42,2.747,KYTC,1
-85.8005357457497,38.255908321264,30TH,MUHAMMAD ALI,,,METRO,1
-85.7815071273592,38.2489411960884,BROADWAY,18TH,US 150,1.07,KYTC,1
-85.7716044206164,38.2482432901312,12TH STREET CONNECTOR,ESQUIRE,,,METRO,1
-85.7874572913015,38.2439414020776,GARLAND,DR W J HODGE,US-31W,19.285,KYTC,1
-85.7962333241861,38.2377684361695,OAK,26TH,,,METRO,1
-85.7619919881367,38.2351731581828,GARVIN,OAK,,,METRO,1
-85.7412402641562,38.2347024569607,MARY,ST CATHERINE,KY-864,14.794,KYTC,1
-85.7414711000562,38.2333958406402,OAK,SHELBY,KY-864,14.7,KYTC,1
-85.7580554982957,38.2287728199784,MAGNOLIA,2ND,KY-1020,10.913,KYTC,1
-85.7547321628998,38.2284742893224,BROOK,MAGNOLIA,,,METRO,1
-85.7586008323775,38.2256510353154,HILL,2ND,KY-1020,10.694,KYTC,1
-85.733329458601,38.2259492735671,GOSS,TEXAS,KY-864,13.933,KYTC,1
-85.8001781350857,38.2237161827927,ALGONQUIN,CYPRESS,KY-2054,1.22,KYTC,1
-85.7266912200724,38.217605510463,POPLAR LEVEL,THRUSTON,KY-864,13.2,KYTC,1
-85.7521082305869,38.214308828017,UNIVERSITY,I 65 RAMP,I-65,0.185,KYTC,1
-85.762298597589,38.2137534879316,EASTERN,3RD,US-60,3.479,KYTC,1
-85.7010023961369,38.21357191924,NEWBURG,TREVILIAN,KY-1703,3.399,KYTC,1
-85.7690909555766,38.2108265538064,ALGONQUIN,WINKLER,US-60,2.78,KYTC,1
-85.7375589795418,38.2069016243661,LOCUST,PRESTON,KY-61,9.476,KYTC,1
-85.7349473788877,38.2028425224018,AUDUBON,PRESTON,KY-61,9.177,KYTC,1
-85.8102712331026,38.2389923248619,LOUIS COLEMAN JR,VIRGINIA,,,METRO,1
-85.6159180661516,38.345459495988,U S HIGHWAY 42,RIVER,US-42,10.55,KYTC,1
-85.6571171892462,38.2530305300675,FRANKFORT,LEXINGTON,US-60,3.46,KYTC,1
-85.6528274319053,38.2705267675682,BROWNSBORO,HUBBARDS,US-42,4.671,KYTC,1
-85.6151532558506,38.2495661536558,NEW LA GRANGE,SHELBYVILLE,US-60,5.77,KYTC,1
-85.6500690432442,38.2052741722934,GOLDSMITH,HIKES,,,METRO,1
-85.6370061928152,38.2301089695574,BRECKENRIDGE,I 264 RAMP,KY-1932,3.73,KYTC,1
-85.5595510159545,38.199316650443,WATTERSON,RUCKRIEGEL,KY-1819,10.16,KYTC,1
-85.5105451886231,38.1885039787132,TAYLORSVILLE,I 265 RAMP,KY-155,6.21,KYTC,1
-85.5519507889038,38.1882887109935,CHENOWETH RUN,TAYLORSVILLE,KY-155,8.46,KYTC,1
-85.6310074790383,38.143396001879,BLAZIER,PEPPERMILL,KY-22 ,0.0,KYTC,1
-85.6134405582193,38.1376493431822,BEULAH CHURCH,FEGENBUSH,KY-1065,4.25,KYTC,1
-85.6212889048964,38.1374329551251,APPLE VALLEY,OUTER,KY-1065,9.66,KYTC,1
-85.5482005911885,38.1874258833458,TAYLORSVILLE,BLANKENBAKER,KY-155,8.244,KYTC,1
-85.57890941815,38.1447932800055,RIDGESIDE,BLACK WILLOW,KY-1447,3.04,KYTC,1
-85.6576383358741,38.1389766864104,OUTER,SHEPHERDSVILLE,KY-1065,7.66,KYTC,1
-85.5689743658221,38.1902019193585,BILLTOWN,RUCKRIEGEL,KY-1819,8.89,KYTC,1
-85.5654614034723,38.1942828967409,TAYLORSVILLE,WATTERSON,KY-155,9.35,KYTC,1
-85.7007934668059,38.2467147538147,GRINSTEAD,I 64 RAMP,I-64,8.071,KYTC,1
-85.8117887404718,38.2614698701574,MARKET,38TH,,,METRO,1
-85.785156311483,38.256964229604,JEFFERSON,DR W J HODGE,US-31W,20.14,KYTC,1
-85.7777446626124,38.2511393494545,CHESTNUT,16TH,,,METRO,1
-85.7882072121325,38.2492247614855,BROADWAY,22ND,US 150,0.0,KYTC,1
-85.7574658571392,38.241716563663,BRECKINRIDGE,3RD,KY-1020,11.978,KYTC,1
-85.7606545547697,38.2391746074252,5TH,KENTUCKY,,,METRO,1
-85.8002990995548,38.2381136128055,28TH,VIRGINIA,,,METRO,1
-85.8016145885347,38.2368758803599,CATALPA,DUMESNIL,,,METRO,1
-85.7432602719618,38.2349166053538,CLAY,ST CATHERINE,,,METRO,1
-85.7434555839323,38.2337891248226,CLAY,OAK,,,METRO,1
-85.7917687664521,38.23155247121,STANDARD,22ND,,,METRO,1
-85.7646824176294,38.2294620302981,MAGNOLIA,6TH,,,METRO,1
-85.7652277441551,38.2263532567013,HILL,6TH,,,METRO,1
-85.735289760298,38.2188924393296,BURNETT,EASTERN,US-60,5.069,KYTC,1
-85.7795928705259,38.2107377256773,CENTRAL,COLORADO,,,METRO,1
-85.7814973231902,38.2021296594755,ARCADE,TAYLOR,US-60,1.89,KYTC,1
-85.6254069020661,38.2647138524409,I 264 RAMP,WESTPORT,KY1447,2.0,KYTC,1
-85.809529227401,38.2431546263237,LOUIS COLEMAN JR,GREENWOOD,,,METRO,1
-85.6269186963035,38.2505774766565,STONEHENGE,SHELBYVILLE,US-60,5.12,KYTC,1
-85.6135113117015,38.2481754833912,OXMOOR,SHELBYVILLE,,,METRO,1
-85.7319075393266,38.2251318887285,GOSS,PARKWAY GARDENS,KY-864,13.837,KYTC,1
-85.754675851777,38.2171034722653,BRANDEIS,FLOYD,,,METRO,3
-85.7015519239771,38.2455458550683,GRINSTEAD,LEXINGTON,US-60,8.009,KYTC,1
-85.7340106486328,38.2527566487894,MARKET,WENZEL,US 31W,16.715,KYTC,1
-85.7331868934482,38.2498752792465,CHESTNUT,LIBERTY,KY-864,15.84,KYTC,1
-85.7650313932273,38.2466755971014,BROADWAY,8TH,US 150,2.015,KYTC,1
-85.730702932205,38.24851087443,BAXTER,LEXINGTON,US-31E,16.3,KYTC,1
-85.7377932913274,38.2545787977785,MAIN,SHELBY,US 31W,16.982,KYTC,1
-85.7560370215744,38.2498508807662,GUTHRIE,3RD,KY-1020,12.37,METRO,1
-85.760293587198,38.249216599193,ARMORY,CHESTNUT,,,METRO,1
-85.6909668403607,38.2031649965036,GARDINER,NEWBURG,KY-1703,2.4,KYTC,1
-85.6834887975917,38.1989310212778,MEADOWCREEK,NEWBURG,KY-1703,1.89,KYTC,1
-85.6891914900806,38.2238634969347,BARDSTOWN,WROCKLAGE,US-31E,13.387,KYTC,1
-85.6847080410047,38.2230110125313,BARDSTOWN,TAYLORSVILLE,US-31E,13.126,KYTC,1
-85.7242756835629,38.2402693432561,BAXTER,HIGHLAND,US-31E,15.653,KYTC,1
-85.722897213908,38.2410442189552,CHEROKEE,HIGHLAND,,,METRO,1
-85.716302903747,38.2302708527325,BAXTER,CASTLEWOOD,KY-1703,4.871,KYTC,1
-85.7443798722754,38.2403191561376,BRECKINRIDGE,HANCOCK,,,METRO,1
-85.7423615361952,38.2401091234555,BRECKINRIDGE,CLAY,,,METRO,1
-85.7403384672889,38.2399011762162,BRECKINRIDGE,SHELBY,KY-864,15.156,KYTC,1
-85.744887469045,38.2373613398601,HANCOCK,KENTUCKY,,,METRO,1
-85.7387503510765,38.2491063145528,SHELBY,MUHAMMAD ALI,,,METRO,1
-85.7367377045167,38.2488875304795,CAMPBELL,MUHAMMAD ALI,,,METRO,1
-85.7518332594476,38.2482843118132,BROOK,CHESTNUT,,,METRO,1
-85.7531392154097,38.2471056229109,1ST,GRAY,,,METRO,1
-85.7496851225407,38.24544727949,BROADWAY,FLOYD,US 150,2.845,KYTC,1
-85.7438461876756,38.2552384212071,JACKSON,MAIN,US 31W,17.343,KYTC,1
-85.7454652857117,38.2577397311824,PRESTON,RIVER,,,METRO,1
-85.7128149531934,38.2555512019655,FRANKFORT,HALDEMAN,US-60,0.382,KYTC,1
-85.7828145691535,38.2221747116929,ALGONQUIN,16TH,KY-2054,2.17,KYTC,1
-85.7647254435518,38.2377248219708,ST CATHERINE,7TH,,,METRO,1
-85.7551244294268,38.2550539759711,MARKET,3RD,US 31W,21.944,KYTC,1
-85.756570314401,38.2566299466582,W MAIN ST,N 4TH ST,US 31W,21.932,KYTC,1
-85.7617413473045,38.2557764673398,MARKET,7TH,US 31W,21.574,KYTC,1
-85.7555005654007,38.2528899647386,LIBERTY,3RD,KY-1020,12.581,METRO,1
-85.7624598811642,38.251687595603,7TH,MUHAMMAD ALI,,,METRO,1
-85.7558432041105,38.250959138549,3RD,MUHAMMAD ALI,KY-1020,12.447,METRO,1
-85.7533443866858,38.2562816997453,MAIN ST,S 2ND ST,US 31W,17.887,KYTC,1
-85.7478919802882,38.2556788915257,E MAIN ST,FLOYD ST,US 31W,17.587,KYTC,1
-85.7538059176815,38.2534922597708,JEFFERSON,2ND,KY-1020,12.627,KYTC,1
-85.7485127053399,38.2521500844963,FLOYD,LIBERTY,,,METRO,1
-85.7465847730206,38.2513368194221,LIBERTY,PRESTON,KY-61,12.79,KYTC,1
-85.7714256147702,38.2582651011684,MAIN,13TH,US 31W,21.117,KYTC,1
-85.7825384367732,38.2683960973581,PORTLAND,22ND,US-150,0.125,KYTC,1
-85.7838066148195,38.1866512103689,TAYLOR,I 264 RAMP,KY-1865,5.53,KYTC,1
-85.729667785161,38.1947102747448,BELMAR,PRESTON,KY-61,8.54,KYTC,1
-85.7394264165023,38.1936602638108,PHILLIPS,STANDIFORD FIELD,I-65,0.772,KYTC,1
-85.7208853947629,38.1824291532832,STANDIFORD,PRESTON,KY-61,7.568,KYTC,1
-85.7213893427687,38.1768572667174,TWIN SPIRES,HERCULES,,,METRO,1
-85.7677283145564,38.1730632448191,KINGSTON,3RD,,,METRO,1
-85.6803122841187,38.1653331062817,NAOMI,POPLAR LEVEL,KY-864,8.72,KYTC,1
-85.7748925619561,38.1441195202245,SHOREWOOD,3RD STREET,KY-1865,2.56,KYTC,1
-85.6902359589471,38.1447714366442,MINOR,PRESTON,KY-61,4.43,KYTC,1
-85.6804535715745,38.1382116503552,OUTER,NOLTEMEYER WYNDE,KY-1065,6.41,KYTC,1
-85.6760543326518,38.1139543674648,GLEN ROSE,PRESTON,KY-61,2.13,KYTC,1
-85.7832661387833,38.1796073047272,BLUEGRASS,TAYLOR,KY-1865,5.03,KYTC,1
-85.7149959590363,38.1158026352512,MINOR,SOUTH PARK,,,METRO,1
-85.6894939124822,38.1163494861298,BLUE LICK,SOUTH PARK,KY-1450,2.17,KYTC,1
-85.7975510337527,38.1703766547417,HAZELWOOD,MANSLICK,KY-1931,6.593,KYTC,1
-85.7144295880607,38.1573110855347,FERN VALLEY,SIGNATURE,KY-1747,0.97,KYTC,1
-85.7646808477585,38.1581242470601,STRAWBERRY,THALIA,KY-1020,6.09,KYTC,1
-85.7791763257403,38.1616255075886,KENWOOD,KNOLL GATE,KY-1865,3.775,KYTC,1
-85.7674231768064,38.1852381320854,ASHLAND,SOUTHERN,KY-1020,8.007,KYTC,1
-85.8080205718338,38.1920406776661,CRUMS,DIXIE, US-31W,15.34,KYTC,1
-85.8357893461156,38.1533745923258,DIXIE,KERRICK, US-31W,12.3,KYTC,1
-85.8354573143122,38.1542078025988,DIXIE,KERRICK, US-31W,12.3,KYTC,1
-85.8362834996434,38.1521718262371,DIXIE,KERRICK, US-31W,12.14,KYTC,1
-85.8352350556059,38.1152348863989,PAGES,3RD STREET,KY-907,2.1,KYTC,1
-85.8349392521666,38.1072607466491,SILVERWOOD,STONESTREET,,,METRO,1
-85.8613956119964,38.1056883044639,VALLEY STATION,RENAISSANCE VALLEY,KY-907,0.32,KYTC,1
-85.8816471079844,38.1611622503945,GREENBELT,RIVERPORT,KY-1934,5.5,KYTC,1
-85.8760176083615,38.1701854676881,LOWER HUNTERS,GREENBELT,KY-1934,6.2,KYTC,1
-85.8478557555629,38.1301768905713,DIXIE,PAGES, US-31W,10.5,KYTC,1
-85.6129677857424,38.1628668889645,WATTERSON,HURSTBOURNE,KY-1747,6.847,KYTC,1
-85.7645170432031,38.2015820429909,SOUTHERN,HARLAN,KY-1020,9.15,KYTC,1
-85.6221158165552,38.219658111826,GOODWILL,TAYLORSVILLE,KY-155,13.123,KYTC,1
-85.7548988000918,38.2158662986266,I 65 RAMP,UNIVERSITY,,,METRO,1
-85.7986093320999,38.2303321420719,CYPRESS,HILL,,,METRO,1
-85.709323306285,38.2319999324015,BARDSTOWN,EASTERN,US-31E,14.626,KYTC,1
-85.7204359795869,38.2265222701031,BARRET,EASTERN,US-60,6.104,KYTC,1
-85.7000916277688,38.2478426072171,GRINSTEAD,I 64 RAMP,I-64,8.072,KYTC,1
-85.7077865082212,38.216987045063,NEWBURG,BELLARMINE,KY-1703,3.85,KYTC,1
-85.7571178424595,38.2031267990526,CENTRAL,FLOYD,,,METRO,1
-85.7357739777715,38.2543605917677,CAMPBELL,MAIN,US 31W,16.919,KYTC,1
-85.7325559088266,38.2525957523572,BAXTER,MARKET,US 31W,16.635,KYTC,1
-85.7339267970288,38.262563869535,I 64 WEST,I 64 RAMP,,,METRO,3
-85.761192019323,38.2493168920326,CHESTNUT,6TH,,,METRO,1
-85.75787724146,38.2489523296472,CHESTNUT,4TH,,,METRO,1
-85.6859580814534,38.2008344278998,BISHOP,NEWBURG,KY-1703,2.09,KYTC,1
-85.7431151123234,38.2145988963356,EASTERN,PRESTON,KY-61,4.549,KYTC,1
-85.7990731445227,38.1967511906579,BERRY,MANSLICK,US-60,0.588,KYTC,1
-85.6842809387856,38.2545890729853,FRANKFORT,HILLCREST,US-60,1.979,KYTC,1
-85.7176792382546,38.2381497074861,CHEROKEE,PATTERSON,,,METRO,1
-85.746103454278,38.2540711594498,MARKET,PRESTON,US 31W,17.375,KYTC,1
-85.7448010062114,38.2497633370199,JACKSON,MUHAMMAD ALI,KY-61,12.611,KYTC,1
-85.75148311846,38.2469298747813,BROOK,GRAY,,,METRO,1
-85.7391317082625,38.2469201513984,CHESTNUT,SHELBY,,,METRO,1
-85.7104710082252,38.2595157102659,BROWNSBORO,HALDEMAN,US-42,1.368,KYTC,1
-85.7679059184632,38.2403917120252,KENTUCKY,9TH,,,METRO,1
-85.7628504254185,38.2398816938577,KENTUCKY,6TH,,,METRO,1
-85.75487037815,38.256450346443,MAIN,3RD,US 31W,22.02,KYTC,1
-85.7598387088948,38.2569875115217,MAIN,6TH,US 31W,21.75,KYTC,1
-85.7570188315477,38.2538433724363,4TH,JEFFERSON,,,METRO,1
-85.7638364522096,38.2534423752072,8TH,LIBERTY,,,METRO,1
-85.7481354093604,38.2542888533872,FLOYD,MARKET,US 31W,17.487,KYTC,1
-85.748379349324,38.2529029274155,FLOYD,JEFFERSON,,,METRO,1
-85.7700107988734,38.2566931969309,MARKET,12TH,US 31W,21.1,KYTC,1
-85.7667043469868,38.2563288578681,MARKET,10TH,US 31W,21.282,KYTC,1
-85.7659874322943,38.2498497624555,CHESTNUT,ROY WILKINS,,,METRO,1
-85.7644998759508,38.2496818796356,CHESTNUT,8TH,,,METRO,1
-85.8009519393022,38.2749471305728,PORTLAND,33RD,KY-3064,1.784,KYTC,1
-85.8106549251098,38.2719632110336,BANK,38TH,KY-3082,0.0,KYTC,1
-85.7010620329747,38.2284548786912,BARDSTOWN,SPEED,US-31E,14.123,KYTC,1
-85.8216124229596,38.2414530985981,CECIL,HALE,,,METRO,1
-85.8373871618678,38.1993207370194,CANE RUN,CRUMS,KY-1934,9.18,KYTC,1
-85.842577830539,38.1953806417574,CRUMS,SHANKS,KY-1934,8.78,KYTC,1
-85.7205039090928,38.1778683268374,GRADE,I 65 RAMP,I-65,0.0,KYTC,1
-85.6797391860236,38.1574162835337,FERN VALLEY,GEIL,KY-1747,2.88,KYTC,1
-85.6998736051861,38.1847163775069,BISHOP,POPLAR LEVEL,KY-864,10.45,KYTC,1
-85.7589937570316,38.1807898103782,ALLMOND,WOODLAWN,,,METRO,1
-85.7812421264612,38.1698241548528,MARRET,NEW CUT,KY-1865,4.343,KYTC,1
-85.6867336990896,38.1384268376544,OUTER,PRESTON,KY-61,3.95,KYTC,1
-85.7134097012275,38.1365536716277,MINOR,OUTER,KY-1065,4.56,KYTC,1
-85.7947659140874,38.1275875633263,OUTER,3RD STREET,KY-907,4.66,KYTC,1
-85.6772525659878,38.1180663771655,MANSLICK,PRESTON,KY-61,2.45,KYTC,1
-85.7525918147603,38.1828138718763,NEVADA,OLD PARK,,,METRO,1
-85.7910991489925,38.152862877387,MANSLICK,PALATKA,KY-1142,0.635,KYTC,1
-85.7060659327916,38.1926681425206,POPLAR LEVEL,SANITA,KY-864,10.75,KYTC,1
-85.7080627326435,38.1570080730251,INDUSTRIAL,ULRICH,KY-1747,1.33,KYTC,1
-85.7168936260551,38.1575775522865,FERN VALLEY,I 65 RAMP,KY-1747,0.79,KYTC,1
-85.725734176337,38.1576941537395,FERN VALLEY,WORLDPORT,KY-1747,0.35,KYTC,1
-85.8008236697088,38.1916751468051,MANSLICK RD,MANSLICK BLVD,KY-1931,8.1,KYTC,1
-85.7509333597399,38.1922691031614,CRITTENDEN,PARK,KY-1631,0.3,KYTC,1
-85.7489666613477,38.1269612195284,NATIONAL,OUTER,KY-1065,2.51,KYTC,1
-85.6809502311533,38.1279173472898,PRESTON,ST RITA,KY-61,3.16,KYTC,1
-85.8552899387288,38.1838435897602,CANE RUN,LEES,KY-1934,7.78,KYTC,1
-85.8353176739924,38.1682877681414,GRASTON,UPPER HUNTERS,,,METRO,1
-85.865547920733,38.1648102203728,LOWER HUNTERS,TERRY,KY-1727,3.03,KYTC,1
-85.8317386016343,38.1620600696279,DIXIE,TRENT, US-31W,12.64,KYTC,1
-85.8742374770251,38.1310296399151,TERRY,PAGES,KY-1727,0.64,KYTC,1
-85.8949249167372,38.1164498806634,CANE RUN,JOHNSONTOWN,KY-1934,2.3,KYTC,1
-85.8240888937396,38.1495453275036,ARNOLDTOWN,ST ANDREWS CHURCH,KY-1931,4.11,KYTC,1
-85.8738995520518,38.0956621414025,BETHANY,DIXIE, US-31W,7.72,KYTC,1
-85.8906319021238,38.0561824443344,DIXIE,WATSON, US-31W,4.81,KYTC,1
-85.8215628374888,38.1758495809364,DIXIE,GAGEL, US-31W,13.99,KYTC,1
-85.7338948874207,38.1532781461304,CRITTENDEN,GRADE,,,METRO,1
-85.6408362097731,38.1612182704668,FERN VALLEY,HURSTBOURNE,KY-1747,5.13,KYTC,1
-85.7192655382844,38.1348202737714,OUTER,AIR COMMERCE,KY-1065,4.2,KYTC,1
-85.7264345403898,38.1326544979742,OUTER,AIR COMMERCE,KY-1065,3.8,KYTC,1
-85.5793002934636,38.2222477459958,HURSTBOURNE,I 64 RAMP,KY-1747,11.83,KYTC,1
-85.7527395657684,38.2587179604639,I 64 RAMP,RIVER,KY-3077,0.171,KYTC,1
-85.6272965725605,38.2162160181925,EL CONQUISTADOR,BRECKENRIDGE,KY-1932,2.538,KYTC,1
-85.7619057511749,38.2164678454188,3RD,CENTENNIAL,KY-1020,10.1,KYTC,1
-85.6372675408522,38.2325802503314,BRECKENRIDGE,DUTCHMANS,,,METRO,1
-85.6053011637666,38.2487306331644,CHRISTIAN,SHELBYVILLE,US-60,6.3,KYTC,1
-85.6412342119239,38.2382841207425,BRECKENRIDGE,KRESGE,,,METRO,1
-85.7270080529275,38.2437446652263,BAXTER,BROADWAY,US-31E,15.901,KYTC,1
-85.6863168870529,38.1978745205221,BISHOP,GARDINER,,,METRO,1
-85.7415419358793,38.2129773617607,CLARKS,PRESTON,KY-61,9.957,KYTC,1
-85.8020165604244,38.1956342887323,NOBEL,7TH STREET,US-60A,0.4,KYTC,1
-85.7239981333838,38.2310107405591,BARRET,CASTLEWOOD,,,METRO,1
-85.752495149677,38.2411814008475,BRECKINRIDGE,BROOK,,,METRO,1
-85.7443280503459,38.2524625462434,JACKSON,JEFFERSON,KY-61,12.798,KYTC,1
-85.7405317804616,38.2506792308281,CLAY,LIBERTY,,,METRO,1
-85.7529215310893,38.2484086603817,W CHESTNUT ST,S 1ST ST,,,METRO,1
-85.7431626022012,38.247358566532,CHESTNUT,HANCOCK,,,METRO,1
-85.7435731662797,38.2449905812224,BROADWAY,HANCOCK,US 150,3.188,KYTC,1
-85.7194768971306,38.2577235338813,FRANKFORT,MELLWOOD,US-42,0.805,KYTC,1
-85.7624187246243,38.2423528513893,BRECKINRIDGE,6TH,,,METRO,1
-85.7633952452342,38.2559610269941,8TH,MARKET,US 31W,21.484,KYTC,1
-85.7604697061848,38.2534356720776,LIBERTY,6TH,,,METRO,1
-85.759898951869,38.251404383792,ARMORY,MUHAMMAD ALI,,,METRO,1
-85.7591542015897,38.2513264690352,5TH,MUHAMMAD ALI,,,METRO,1
-85.751565243776,38.256082130026,N 1ST ST,W MAIN ST,US 31W,17.789,KYTC,1
-85.750632445851,38.2523624885168,BROOK,LIBERTY,,,METRO,1
-85.7488525962614,38.2502038679326,FLOYD,MUHAMMAD ALI,,,METRO,1
-85.7683534464052,38.2565116934605,11TH,MARKET,US 31W,21.192,KYTC,1
-85.7702519879709,38.255299360306,JEFFERSON,12TH,,,METRO,1
-85.7728039572795,38.2505996709189,CHESTNUT,13TH,,,METRO,1
-85.8141982874022,38.2248847017351,ALGONQUIN,35TH,KY-2054,1.208,KYTC,1
-85.8093252542255,38.2244078176939,ALGONQUIN,CANE RUN,KY-2054,0.072,KYTC,1
-85.7835622649377,38.2665655862692,BANK,22ND,US-150,0.25,KYTC,1
-85.807881367825,38.2721435576984,37TH,I 264 RAMP,KY-3082,0.118,KYTC,1
-85.8269704424247,38.2505375671875,BROADWAY,SOUTHWESTERN,,,METRO,1
-85.7684422542563,38.1818232906104,SOUTHERN,WOODLAWN,KY-1020,7.837,KYTC,1
-85.7882712014078,38.1794246979122,BLUEGRASS,HAZELWOOD,,,METRO,1
-85.7145065121254,38.1763291937461,ORCHARD,PRESTON,KY-61,7.025,KYTC,1
-85.6886608936403,38.1707193841957,INDIAN,JEANINE,,,METRO,1
-85.7647354083295,38.1695525500024,ROCHESTER,SOUTHSIDE,KY-1020,6.865,KYTC,1
-85.7006332358214,38.1629761386829,BENNETT,PRESTON,KY-61,6.08,KYTC,1
-85.8019475651004,38.1554067429389,MANSLICK,PALATKA,KY-1931,5.48,KYTC,1
-85.7628307362963,38.1429884238841,SAM,OLDE NANTUCKET,,,METRO,1
-85.6750032999359,38.1401382698127,BATES,JEFFERSON,,,METRO,1
-85.675149010052,38.138013379606,OUTER,JEFFERSON,KY-1065,6.69,KYTC,1
-85.6841706608802,38.1337742092645,BLUE LICK,PRESTON,KY-61,3.62,KYTC,1
-85.6773875392606,38.1938113790593,CHAMPIONS TRACE,NEWBURG,KY-1703,1.43,KYTC,1
-85.6792261116711,38.124364507465,MILES,COOPER VILLAGE,KY-61,2.91,KYTC,1
-85.7775834250228,38.1559241541999,NEW CUT,PARK,KY-1865,3.383,KYTC,1
-85.682217198936,38.1846911239703,JENNINGS,PRODUCE,,,METRO,1
-85.8160519234434,38.1809413121284,DIXIE,HEATON, US-31W,14.45,KYTC,1
-85.7753731472171,38.1176251225927,NEW CUT,OLD NEW CUT,KY1865,0.61,KYTC,1
-85.8369916277358,38.1130119030453,STONESTREET,3RD STREET,KY-907,1.92,KYTC,1
-85.8684675538461,38.1049101700676,DIXIE,VESPER, US-31W,8.42,KYTC,1
-85.8798391640319,38.0853901260685,DIXIE,FLOWERVALE, US-31W,6.9,KYTC,1
-85.8749888899468,38.093747227968,DIXIE,GREENBELT RAMP, US-31W,7.35,KYTC,1
-85.5936816094048,38.2133136936538,HURSTBOURNE,SHANE,KY-1747,10.82,KYTC,1
-85.6399177000262,38.1717385225492,FEGENBUSH,BURNT PINE,,,METRO,1
-85.6434457911128,38.1194371129029,I 265 RAMP,SMYRNA,I-265,13.54,KYTC,1
-85.6436305082034,38.1168803584561,I 265 RAMP,SMYRNA,I-265,13.54,KYTC,1
-85.7761258398438,38.1263939349099,NEW CUT,OUTER,KY-1065,1.03,KYTC,1
-85.6584944368316,38.2000272592342,GREEN MEADOWS,HIKES,,,METRO,1
-85.6490158034942,38.1779403609316,BUECHEL BANK,COTTAGEMEADOW,,,METRO,1
-85.6806003831995,38.2486636754831,GARDEN,LEXINGTON,US-60,9.225,KYTC,1
-85.7994711160014,38.2060321139831,DIXIE,RALPH, US-31W,16.41,KYTC,1
-85.7222400678667,38.2555031504356,MELLWOOD,SPRING,US-42,0.587,KYTC,1
-85.7360233240382,38.2529720511369,CAMPBELL,MARKET,US 31W,16.825,KYTC,1
-85.7665143064303,38.2468741720136,BROADWAY,9TH,US 150,1.929,KYTC,1
-85.759530926031,38.2491346275159,CHESTNUT,5TH,,,METRO,1
-85.6998822908334,38.2537546573506,EWING,FRANKFORT,US-60,1.12,KYTC,1
-85.756670083058,38.2200570432543,BRANDEIS,BROOK,,,METRO,1
-85.7614218332559,38.2192968362345,BRANDEIS,3RD,KY-1020,10.235,KYTC,1
-85.720984977079,38.2384191155401,BARDSTOWN,GRINSTEAD,US-31E,15.423,KYTC,1
-85.7223694860418,38.2377933474065,BAXTER,GRINSTEAD,KY-1703,5.487,KYTC,1
-85.7155149097654,38.23541420592,BARDSTOWN,LONGEST,US-31E,15.06,KYTC,1
-85.7164098589241,38.2359010393358,BARDSTOWN,LONGEST,US-31E,15.119,KYTC,1
-85.715292841268,38.2289364438757,BAXTER,EASTERN,US-60,6.44,KYTC,1
-85.7525323949326,38.2292623361608,FLOYD,WOODBINE,,,METRO,1
-85.7422658396929,38.2247940023741,BURNETT,SHELBY,,,METRO,1
-85.7479398258671,38.2197529715615,BRANDEIS,PRESTON,KY-61,10.652,KYTC,1
-85.7390289957239,38.2397654579147,BRECKINRIDGE,LOGAN,KY-864,15.071,KYTC,1
-85.7423122684396,38.2522449234747,HANCOCK,JEFFERSON,,,METRO,1
-85.7402937886246,38.2520224943536,CLAY,JEFFERSON,,,METRO,1
-85.7411459893329,38.2471357865594,CHESTNUT,CLAY,,,METRO,1
-85.7533839416816,38.2457213902667,W BROADWAY,S 1ST ST,US 150,2.655,KYTC,1
-85.7517193871876,38.2455982791172,BROADWAY,BROOK,US 150,2.729,KYTC,1
-85.7168732685735,38.260134430328,BROWNSBORO,MELLWOOD,US-42,1.022,KYTC,1
-85.7644621089627,38.2400420601039,KENTUCKY,7TH,,,METRO,1
-85.7544876926878,38.2585311893549,RIVER,3RD,KY-3077,0.362,KYTC,1
-85.7581839973891,38.2568063448166,5TH,MAIN,US 31W,21.842,KYTC,1
-85.7567904597133,38.2552374424917,4TH,MARKET,US 31W,21.86,KYTC,1
-85.7621255415506,38.2536114698958,LIBERTY,7TH,,,METRO,1
-85.7571557284034,38.2530765693912,4TH,LIBERTY,,,METRO,1
-85.7641153464397,38.2518681757445,8TH,MUHAMMAD ALI,,,METRO,1
-85.7574916691659,38.2511397307659,4TH,MUHAMMAD ALI,,,METRO,1
-85.7520540465145,38.2532977197414,1ST,JEFFERSON,,,METRO,1
-85.7504029203978,38.2531163979596,BROOK,JEFFERSON,I-65,3.624,KYTC,1
-85.7542746237195,38.2507873709086,2ND,MUHAMMAD ALI,KY-1020,12.437,KYTC,1
-85.7515576333132,38.2504919908082,BROOK,MUHAMMAD ALI,,,METRO,1
-85.7697681682625,38.2580812154326,MAIN,12TH,US 31W,21.208,KYTC,1
-85.7690727451083,38.2524143558986,11TH,MUHAMMAD ALI,,,METRO,1
-85.6885470134708,38.1578636108107,FERN VALLEY,JEANINE,KY-1747,2.4,KYTC,1
-85.7241927006401,38.1863382430675,DURRETT,PRESTON,KY-61,7.888,KYTC,1
-85.7172274614772,38.1789070658932,PRESTON,I 65 RAMP,KY-61,7.245,KYTC,1
-85.7825733919714,38.1750928191835,BROOKLINE,TAYLOR,KY-1865,4.715,KYTC,1
-85.712739921356,38.1746708677713,ALDER,PRESTON,KY-61,6.874,KYTC,1
-85.6849316990223,38.17158347747,INDIAN,POPLAR LEVEL,KY-864,9.22,KYTC,1
-85.7687348522254,38.1674091911329,INVERNESS,3RD,,,METRO,1
-85.797947939551,38.1604851505418,MANSLICK,MELODY,,,METRO,1
-85.7752624604412,38.1458222590143,NEW CUT,3RD STREET,KY-1865,2.668,KYTC,1
-85.697122498963,38.1361954946134,MINOR,OUTER,KY-1065,5.47,KYTC,1
-85.7477348792727,38.1125790028848,FAIRDALE,NATIONAL,KY-1020,2.66,KYTC,1
-85.7831061748086,38.1941710094847,CARLISLE,TAYLOR,KY-1865,6.05,KYTC,1
-85.7845870067457,38.1519390079539,BRUCE,PALATKA,KY-1142,0.991,KYTC,1
-85.7319095416391,38.1571697842908,FERN VALLEY,GRADE,KY-1747,0.0,KYTC,1
-85.7656264978163,38.1525361150164,NATIONAL,SOUTHSIDE,KY-1020,7.04,KYTC,1
-85.7717546991732,38.1487486352877,PALATKA,SOUTHSIDE,KY-907,6.598,KYTC,1
-85.7509109335445,38.1940268624609,CRITTENDEN,HURON,KY-1631,0.421,KYTC,1
-85.8345669873011,38.1561302304832,DIXIE,LOWER HUNTERS, US-31W,12.44,KYTC,1
-85.8556941135605,38.1212128387791,DIXIE,JOHNSONTOWN, US-31W,9.75,KYTC,1
-85.8625182396383,38.1132928718707,CITATION,DIXIE, US-31W,9.1,KYTC,1
-85.8340021799741,38.1573664174612,BLANTON,DIXIE, US-31W,12.54,KYTC,1
-85.8369317712681,38.1506123715058,DIXIE,ST PAULS CHURCH, US-31W,12.02,KYTC,1
-85.8194032200223,38.1518190083912,BLANTON,ST ANDREWS CHURCH,KY-1931,4.41,KYTC,1
-85.8865674044476,38.0623033376878,DIXIE,PENDLETON, US-31W,5.29,KYTC,1
-85.8233288395305,38.1743373014829,DIXIE,ROCKFORD, US-31W,13.84,KYTC,1
-85.7678366763655,38.2357241905174,OAK,9TH STREET RAMP,,,METRO,1
-85.5797992716728,38.2560321290784,PORTER,HURSTBOURNE,KY-1747,14.25,KYTC,1
-85.8118342323617,38.2302843770457,LOUIS COLEMAN JR,YOUNG,,,METRO,1
-85.6515522150405,38.1781051261895,PROGRESS,BUECHEL BANK,,,METRO,1
-85.7276569854752,38.235737845784,BARRET,OAK,,,METRO,1
-85.68790093791,38.2453764179022,ALTA VISTA,LEXINGTON,US-60,8.746,KYTC,1
-85.7952666098518,38.2164695178028,DIXIE,WATHEN, US-31W,17.18,KYTC,1
-85.7761945356168,38.2063366541304,CENTRAL,TAYLOR,US-60,2.293,KYTC,1
-85.7655685340343,38.205159724976,CENTRAL,4TH,,,METRO,1
-85.7329419211339,38.2512029949243,BAXTER,CHESTNUT,US-31,15.997,KYTC,1
-85.7317104926643,38.2497806431558,BAXTER,LIBERTY,US-31E,16.422,KYTC,1
-85.7633792216722,38.2464488529463,BROADWAY,7TH,US 150,2.06,KYTC,1
-85.7583845237219,38.2460867161714,BROADWAY,4TH,US 150,2.381,KYTC,1
-85.7316132130084,38.197660260452,PHILLIPS,PRESTON,KY-61,8.768,KYTC,1
-85.693947774154,38.2245780367361,BARDSTOWN,DOUGLASS,US-31E,13.643,KYTC,1
-85.7508968445595,38.2259746746852,BURNETT,HILL,,,METRO,1
-85.7504709814239,38.2409654034291,BRECKINRIDGE,FLOYD,,,METRO,1
-85.7463969463564,38.2405307150882,BRECKINRIDGE,JACKSON,KY-61,11.967,KYTC,1
-85.7509939007007,38.2380025546322,FLOYD,KENTUCKY,,,METRO,1
-85.7488354075666,38.2377692036129,KENTUCKY,PRESTON,KY-61,11.84,KYTC,1
-85.732439444727,38.2418785193338,BARRET,ST ANTHONY,,,METRO,1
-85.7445699001732,38.2511199108463,JACKSON,LIBERTY,KY-61,12.7,KYTC,1
-85.7425501955323,38.2509002864775,HANCOCK,LIBERTY,,,METRO,1
-85.7395146769482,38.24468590423,BROADWAY,SHELBY,US 150,3.404,KYTC,1
-85.7166628004897,38.2568060913674,FRANKFORT,POPE,US-60,0.123,KYTC,1
-85.7605904164878,38.2420553582947,BRECKINRIDGE,5TH,,,METRO,1
-85.7553759519779,38.2536621000608,JEFFERSON,3RD,KY-1020,12.638,METRO,1
-85.7631551530405,38.2573512287977,8TH,MAIN,US 31W,21.57,KYTC,1
-85.7614924974142,38.2571657488114,MAIN,7TH,US 31W,21.66,KYTC,1
-85.7584285033636,38.2554145525189,5TH,MARKET,US 31W,21.76,KYTC,1
-85.7636335908327,38.2545710186552,8TH,JEFFERSON,,,METRO,1
-85.7501508620962,38.2545079256253,BROOK,MARKET,US 31W,17.567,KYTC,1
-85.7650343063766,38.2561435243598,MARKET,ROY WILKINS,US 31W,21.356,KYTC,1
-85.7651241953695,38.2547342396409,JEFFERSON,ROY WILKINS,,,METRO,1
-85.8023680847473,38.2316037610824,CATALPA,WILSON,,,METRO,1
-85.8043247708321,38.2724034338948,BANK,35TH,KY-3082,0.313,KYTC,1
-85.8211122612106,38.2441892436625,CECIL,GREENWOOD,,,METRO,1
-85.7667094785143,38.1892431589077,SOUTHERN HEIGHTS,SOUTHERN,KY-1020,8.354,KYTC,1
-85.76678200109,38.1939484203144,SOUTHERN,WHITNEY,KY-1020,8.674,KYTC,1
-85.7507207266029,38.1886702091766,CRITTENDEN,I 264 RAMP,KY-1631,0.0,KYTC,1
-85.698306021098,38.1827267088912,GILMORE,POPLAR LEVEL,KY-864,10.28,KYTC,1
-85.7988541644191,38.1789431922217,BLUEGRASS,HOBART,KY-1931,7.196,KYTC,1
-85.7680049840775,38.1714845851568,SOUTHLAND,3RD,,,METRO,1
-85.7647199101029,38.1711457926272,SOUTHLAND,SOUTHSIDE,KY-1020,6.975,KYTC,1
-85.7065817155142,38.1687640555731,INDIAN,PRESTON,KY-61,6.34,KYTC,1
-85.7538139632808,38.139271631228,NATIONAL,PATRICK HENRY,KY-1020,4.61,KYTC,1
-85.7371124399381,38.1299521486613,GRADE,OUTER,KY-1065,3.19,KYTC,1
-85.6745217710657,38.10869278644,PRESTON,I 265 RAMP,KY-61,1.79,KYTC,1
-85.7834315238713,38.1895509351831,TAYLOR,I 264 RAMP,KY-1865,5.731,KYTC,1
-85.7503526766883,38.1831879582788,CRITTENDEN,NEVADA,,,METRO,1
-85.7819466845038,38.126663122155,CANDLEWORTH,OUTER,KY-1065,6.85,KYTC,1
-85.725139777351,38.1588550498996,GRADE,WORLDPORT,,,METRO,1
-85.8053282506889,38.193618878733,PARK,7TH STREET,US-60A,0.0,KYTC,1
-85.7484753594621,38.1236385968603,GLENGARRY,NATIONAL,KY-1020,3.45,KYTC,1
-85.8476904566373,38.1578358620362,LOWER HUNTERS,UPPER HUNTERS,,,METRO,1
-85.8395884930818,38.1434911020982,GREENWOOD,ST ANDREWS CHURCH, US-31W,11.52,KYTC,1
-85.8696549926643,38.1029709028575,ASHBY,BARRETT, US-31W,8.27,KYTC,1
-85.8519960646138,38.1440347890491,GREENWOOD,SKY BLUE,KY-1931,2.45,KYTC,1
-85.8712449709051,38.1746068349223,GREENBELT,RAGGARD,KY-1934,6.617,KYTC,1
-85.8115258423038,38.2323582624632,LOUIS COLEMAN JR,SOUTHERN,,,METRO,1
-85.5232785460581,38.2448226343766,WOODED FALLS,OLD SHELBYVILLE,US-60,10.92,KYTC,1
-85.5250490665711,38.2880376487381,WYNMEADE,WINCHESTER ACRES,,,METRO,1
-85.7311981915335,38.2402861023121,BARRET,BRECKINRIDGE,,,METRO,1
-85.7115837138719,38.2307598286043,EASTERN,NORRIS,US-60,6.677,KYTC,1
-85.7061337902667,38.2536157784161,CLIFTON,FRANKFORT,US-60,0.778,KYTC,1
-85.7080402776065,38.199235323138,POPLAR LEVEL,TAYLOR,KY-864,11.568,KYTC,1
-85.7362656900778,38.251583255182,CAMPBELL,JEFFERSON,,,METRO,1
-85.7683267219946,38.2471123868248,BROADWAY,10TH,US 150,1.83,KYTC,1
-85.7630776115559,38.2481968448912,MAGAZINE,7TH,,,METRO,1
-85.7550519834368,38.2458444362537,BROADWAY,2ND,US 150,2.559,KYTC,1
-85.7470787672138,38.2124722103827,BRADLEY,EASTERN,US-60,4.281,KYTC,1
-85.76118180063,38.2205603624917,CARDINAL,3RD,KY-1020,10.323,KYTC,1
-85.7597905443541,38.2204111775829,CARDINAL,2ND,KY-1020,10.32,KYTC,1
-85.8064559050331,38.1945188253053,DIXIE,PARK, US-31W,15.55,KYTC,1
-85.7140836106097,38.2361808869748,CHEROKEE,LONGEST,,,METRO,1
-85.7483254843401,38.2407334197885,BRECKINRIDGE,PRESTON,KY-61,12.05,KYTC,1
-85.7530132297299,38.2382199774869,BROOK,KENTUCKY,,,METRO,1
-85.7400527897801,38.2534105955312,CLAY,MARKET,US 31W,17.047,KYTC,1
-85.7463421883186,38.2526842784203,JEFFERSON,PRESTON,KY-61,12.885,KYTC,1
-85.7407669479042,38.24932604699,CLAY,MUHAMMAD ALI,,,METRO,1
-85.7544469869669,38.2497042024296,GUTHRIE,2ND,KY-1020,12.634,KYTC,1
-85.74518012611,38.2475826733586,CHESTNUT,JACKSON,KY-61,12.458,KYTC,1
-85.7371089997912,38.2466958314874,CAMPBELL,CHESTNUT,,,METRO,1
-85.7456009093798,38.2451433153416,BROADWAY,JACKSON,US 150,3.074,KYTC,1
-85.7102744533241,38.2547427808335,BELLAIRE,FRANKFORT,US-60,0.532,KYTC,1
-85.7562452961773,38.2586967493374,4TH,RIVER,KY-3077,0.625,KYTC,1
-85.7600848962286,38.25559432046,MARKET,6TH,US 31W,21.655,KYTC,1
-85.761981033256,38.2543866170473,JEFFERSON,7TH,,,METRO,1
-85.760325965402,38.2542066874842,JEFFERSON,6TH,,,METRO,1
-85.7518089796182,38.2546889897957,1ST,MARKET,US 31W,17.669,KYTC,1
-85.7522005840999,38.2525314857257,1ST,LIBERTY,,,METRO,1
-85.7694597431906,38.2502281812263,CHESTNUT,11TH,,,METRO,1
-85.7903740791487,38.2712175947703,PORTLAND,26TH,KY-3064,0.445,KYTC,1
-85.8213708993251,38.2503492157856,BROADWAY,CECIL,,,METRO,1
-85.8208657961424,38.2469025765586,CECIL,GARLAND,,,METRO,1
-85.7649629181214,38.1939734229205,3RD,WHITNEY,,,METRO,1
-85.7667270286058,38.1911473425909,FLORENCE,SOUTHERN,KY-1020,8.484,KYTC,1
-85.8099819127408,38.1894041779008,DIXIE,GARRS, US-31W,15.12,KYTC,1
-85.801232926941,38.1892261732276,CRUMS,MANSLICK,KY-1931,7.919,KYTC,1
-85.7648814947348,38.1891693660976,SOUTHERN HEIGHTS,3RD,I-264,0.087,KYTC,1
-85.7184609825157,38.1800975486793,GRADE,PRESTON,KY-61,7.358,KYTC,1
-85.6941992272307,38.1803955727297,POPLAR LEVEL,POPLAR PLACE,KY-864,10.08,KYTC,1
-85.691935954013,38.1791903630664,POPLAR LEVEL,PRODUCE,KY-864,9.87,KYTC,1
-85.7670535183585,38.1769250466879,3RD,TENNY,KY-1020,7.47,KYTC,1
-85.6817420064699,38.1672777552962,POPLAR LEVEL,RANGELAND,KY-864,8.88,KYTC,1
-85.6992487979043,38.1608787429751,FOREST,PRESTON,KY-61,5.67,KYTC,1
-85.7769894867965,38.1216755209753,NEW CUT,KY-841 RAMP,KY-1865,0.67,KYTC,1
-85.7658114145443,38.1839160252307,3RD,WELLINGTON,,,METRO,1
-85.7594380482144,38.1473709694072,ENTERPRISE,NATIONAL,KY-1020,5.18,KYTC,1
-85.6791630661569,38.1953458583053,BASHFORD MANOR,NEWBURG,KY-1703,1.55,KYTC,1
-85.7508923927152,38.1914016414994,CRITTENDEN,I 264 RAMP,KY-1631,0.2,KYTC,1
-85.8931213693837,38.1254473596045,TRADE PORT,GREENBELT,KY-1934,2.88,KYTC,1
-85.8444058940827,38.1180099375917,STONESTREET,VALLEY COLLEGE,,,METRO,1
-85.8415069040956,38.1072977630214,3RD STREET,VALLEY STATION,KY-907,1.44,KYTC,1
-85.8667212432688,38.1076533287423,DIXIE,VALLEY STATION, US-31W,8.63,KYTC,1
-85.8719263203064,38.0990503208774,DIXIE GARDEN,DIXIE, US-31W,7.98,KYTC,1
-85.8349460727896,38.1760168170351,GRASTON,ROCKFORD,KY-2051,0.65,KYTC,1
-85.6747312096934,38.1438005647582,MCCAWLEY,JEFFERSON,,,METRO,1
-85.6283962205637,38.2451770000963,SHERBURN,BOWLING,,,METRO,1
-85.5405188678222,38.2954434230156,CHAMBERLAIN,I 265 RAMP,,,METRO,1
-85.6633791046314,38.2011732745334,BARDSTOWN,PARIS,US-31E,11.174,KYTC,1
-85.7598915789961,38.2134911995163,EASTERN,3RD,US-60,3.5,KYTC,1
-85.797744784683,38.2365329590586,CYPRESS,DUMESNIL,,,METRO,1
-85.7282673741924,38.2365162665151,BARRET,KENTUCKY,,,METRO,1
-85.7829607265772,38.196267267542,BERRY,TAYLOR,US-60,1.473,KYTC,1
-85.7312820303935,38.2538742118841,E MAIN ST,S JOHNSON ST,US 31W,16.739,KYTC,1
-85.7342473208229,38.2513643252194,JEFFERSON,WENZEL,,,METRO,1
-85.7617219163214,38.2463309016841,BROADWAY,6TH,US 150,2.172,KYTC,1
-85.7600512517023,38.2462085029674,BROADWAY,5TH,US 150,2.291,KYTC,1
-85.7567208512497,38.2459650378868,BROADWAY,3RD,US 150,2.474,KYTC,1
-85.7289625044851,38.2462446939883,BAXTER,PAYNE,US-31E,16.137,KYTC,1
-85.7562270611137,38.2487706498669,CHESTNUT,3RD,KY-1020,12.295,METRO,1
-85.7628448697425,38.2495000980494,CHESTNUT,7TH,,,METRO,1
-85.8047154776193,38.1971030545058,DIXIE,NOBEL, US-31W,15.72,KYTC,1
-85.6929954371634,38.2546525207479,BAYLY,FRANKFORT,US-60,1.51,KYTC,1
-85.7052780131753,38.2433242037739,CHEROKEE,GRINSTEAD,US-60,7.753,KYTC,1
-85.7527142826632,38.2282299319199,FLOYD,MAGNOLIA,,,METRO,1
-85.7533209091857,38.2248626146733,FLOYD,HILL,,,METRO,1
-85.7469074236173,38.2375687325887,JACKSON,KENTUCKY,KY-61,11.761,KYTC,1
-85.7428684033453,38.2371542442672,CLAY,KENTUCKY,,,METRO,1
-85.7382863286053,38.2518060728307,JEFFERSON,SHELBY,,,METRO,1
-85.7385186355886,38.2504597931911,LIBERTY,SHELBY,,,METRO,1
-85.747197500557,38.2477986799431,CHESTNUT,PRESTON,KY-61,12.546,KYTC,1
-85.7475898264139,38.2452915344732,BROADWAY,PRESTON,US 150,2.964,KYTC,1
-85.7415415255832,38.2448383767288,BROADWAY,CLAY,US 150,3.303,KYTC,1
-85.7339639246475,38.2442701215414,BARRET,BROADWAY,US 150,3.719,KYTC,1
-85.7661622802901,38.2402081281336,8TH,KENTUCKY,,,METRO,1
-85.759564727711,38.2533370059601,ARMORY,LIBERTY,,,METRO,1
-85.7608061007005,38.2515038772012,6TH,MUHAMMAD ALI,,,METRO,1
-85.7539258032954,38.2527140833892,LIBERTY,2ND,KY-1020,12.572,KYTC,1
-85.752528033464,38.2505988058887,1ST,MUHAMMAD ALI,,,METRO,1
-85.7503955151388,38.2576467150388,BINGHAM,WITHERSPOON,KY-3077,0.653,KYTC,1
-85.7716655416404,38.2568741960435,MARKET,13TH,US 31W,21.008,KYTC,1
-85.7719450331877,38.2554815730103,JEFFERSON,13TH,,,METRO,1
-85.7648035251488,38.2575403068728,MAIN,9TH,US 31W,21.473,KYTC,1
-85.7656029384903,38.2520354627589,ROY WILKINS,MUHAMMAD ALI,,,METRO,1
-85.8254916864101,38.2083596476634,CANE RUN,RALPH,KY-1934,10.09,KYTC,1
-85.8268755669023,38.2072903681798,CANE RUN,I 264 RAMP,KY-1934,9.96,KYTC,1
-85.8286285738975,38.2059708757052,CANE RUN,I 264 RAMP,KY-1934,9.84,KYTC,1
-85.7772065479697,38.1193462072539,NEW CUT,KY-841 RAMP,KY-1865,0.68,KYTC,1
-85.6969658815833,38.1568493976473,FERN VALLEY,PRESTON,KY-61,5.36,KYTC,1
-85.7991984734601,38.1812631197405,ANNA,MANSLICK,KY-1931,7.377,KYTC,1
-85.7041317384413,38.1664561721513,PRESTON,VINEWOOD,KY-61,6.13,KYTC,1
-85.6924803386361,38.1488069117624,OAKLAWN,PRESTON,KY-61,4.76,KYTC,1
-85.6737502311015,38.1379442994898,OUTER,LAUREL RIDGE,KY-1065,6.86,KYTC,1
-85.7023003366113,38.136723331654,OUTER,I 65 RAMP,KY-1065,5.18,KYTC,1
-85.766223751997,38.1815760423274,3RD,WOODLAWN,,,METRO,1
-85.748165237552,38.1192782096578,NATIONAL,KY-841 RAMP,KY-1020,3.0,KYTC,1
-85.8747405272069,38.1217364927443,JOHNSONTOWN,TERRY,KY-1727,1.04,KYTC,1
-85.8532142163843,38.1241899920172,DIXIE,WITTEN, US-31W,9.99,KYTC,1
-85.8619478472374,38.1781242929359,CANE RUN,TERRY,KY 1934,7.182,KYTC,1
-85.8852735972213,38.0657528039355,DIXIE,LANDSTAR,US 31W,5.4,KYTC,1
-85.8718716054075,38.1447265525084,GREENWOOD,TERRY,KY-1727,1.6,KYTC,1
-85.8593720034909,38.1798989115798,BRIDWELL,CANE RUN,KY-1934,7.37,KYTC,1
-85.7639503327732,38.2047539201787,CENTRAL,3RD,KY-1020,9.47,KYTC,1
-85.6715093288161,38.1569486340182,FERN VALLEY,JEFFERSON,KY-1747,3.33,KYTC,1
-85.6486448216432,38.1584558324897,POPLAR LEVEL,FERN VALLEY,KY-864,7.17,KYTC,1
-85.70762098834,38.1955300507042,POPLAR LEVEL,I 264 RAMP,KY-864,11.32,KYTC,1
-85.7337586040723,38.2541428158882,MAIN,WENZEL,US 31W,16.808,KYTC,1
-85.738037359291,38.2531894613979,MARKET,SHELBY,US 31W,16.936,KYTC,1
-85.7398112901488,38.2547959559131,E MAIN ST,S CLAY ST,US 31W,17.139,KYTC,1
-85.7016582339208,38.2583135023084,BROWNSBORO,EWING,US-42,1.846,KYTC,1
-85.6849169669158,38.2000981752867,GOLDSMITH,NEWBURG,KY-1703,2.0,KYTC,1
-85.7195493135919,38.2391855750169,CHEROKEE,GRINSTEAD,KY-2860,0.517,KYTC,1
-85.7408506545821,38.2369470970938,KENTUCKY,SHELBY,KY-864,14.95,KYTC,1
-85.7440877081331,38.2538365731174,JACKSON,MARKET,US 31W,17.265,KYTC,1
-85.7420656387223,38.2536325862591,HANCOCK,MARKET,US 31W,17.158,KYTC,1
-85.7365050113916,38.2502375773097,CAMPBELL,LIBERTY,,,METRO,1
-85.7468159269977,38.249984360106,PRESTON,MUHAMMAD ALI,KY-61,12.7,KYTC,1
-85.734485380235,38.2500190146863,LIBERTY,WENZEL,,,METRO,1
-85.7427887407331,38.249543790217,HANCOCK,MUHAMMAD ALI,,,METRO,1
-85.7545707871958,38.2485885962585,CHESTNUT,2ND,KY-1020,12.288,KYTC,1
-85.749236182185,38.2480133484121,CHESTNUT,FLOYD,,,METRO,1
-85.7359988486622,38.2465787242916,CHESTNUT,CHESTNUT STREET CONNECTOR,KY-864,15.596,KYTC,1
-85.7374845029317,38.2445406482305,BROADWAY,CAMPBELL,US 150,3.514,KYTC,1
-85.7458716600606,38.2554491864454,MAIN,PRESTON,US 31W,17.456,KYTC,1
-85.7214702478805,38.2588503626407,FRANKFORT,STORY,US-42,0.675,KYTC,1
-85.715517633748,38.2564325434087,FRANKFORT,STATE,US-60,0.237,KYTC,1
-85.7801300681897,38.227963276493,15TH,HILL,,,METRO,1
-85.7650947443548,38.2354597585715,OAK,7TH,,,METRO,1
-85.763651304534,38.2353269132304,OAK,6TH,,,METRO,1
-85.7586765246842,38.2540247737531,5TH,JEFFERSON,,,METRO,1
-85.7588093802853,38.2532528713145,5TH,LIBERTY,,,METRO,1
-85.7499131256242,38.2558977236654,E MAIN ST,N BROOK ST,US 31W,17.699,KYTC,1
-85.7724209066339,38.2527825450882,13TH,MUHAMMAD ALI,,,METRO,1
-85.7707322251601,38.2525978801313,12TH,MUHAMMAD ALI,,,METRO,1
-85.764732103338,38.2483762264182,8TH,MAGAZINE,,,METRO,1
-85.7909772685379,38.2693333440292,BANK,26TH,KY-3082,1.09,KYTC,1
-85.8350031338293,38.2011351410301,CANE RUN,KRAMERS,KY-1934,9.36,KYTC,1
-85.8330356140248,38.202622428262,CANE RUN,FARNSLEY,KY-1934,9.63,KYTC,1
-85.7277830519999,38.1918496905059,PRESTON,I 264 RAMP,KY-61,8.3,KYTC,1
-85.7648969452638,38.1911838169354,FLORENCE,3RD,I-264,0.65,KYTC,1
-85.8036031698082,38.1212170398541,ARNOLDTOWN,3RD STREET,KY-907,3.99,KYTC,1
-85.7479769633904,38.1166977252292,NATIONAL,KY-841 RAMP,KY-1020,3.01,KYTC,1
-85.6754364165141,38.1118453789544,PRESTON,I 265 RAMP,KY-61,2.02,KYTC,1
-85.7837655176979,38.1831162254236,BICKNELL,TAYLOR,KY-1865,5.285,KYTC,1
-85.7220614203727,38.1579863649024,FERN VALLEY,I 65 RAMP,KY-1747,0.55,KYTC,1
-85.7312898285816,38.1584427954363,ASHBOTTOM,GRADE,,,METRO,1
-85.7763567439422,38.1507989386615,NEW CUT,PALATKA,KY-1865,3.01,KYTC,1
-85.828483621721,38.1685515779809,DIXIE,UPPER HUNTERS, US-31W,13.27,KYTC,1
-85.8303099157447,38.1649262797445,DIXIE,MEYERS, US-31W,13.08,KYTC,1
-85.8493385319134,38.1586366075855,LOWER HUNTERS,SKY BLUE,,,METRO,1
-85.8864171333817,38.1469475348357,GREENWOOD,GREENBELT,KY-1934,4.44,KYTC,1
-85.8920294734554,38.0982128180782,LOWER RIVER,GREENBELT,KY-1934,1.03,KYTC,1
-85.6713367722744,38.1601097778968,POPLAR LEVEL,JEFFERSON,KY-864,8.05,KYTC,1
-85.7635492641349,38.2166736908784,4TH,UNITY,,,METRO,1
-85.7389989104239,38.2227124250573,BURNETT,HICKORY,,,METRO,3
-85.7598344417681,38.1616283183266,STEEDLY,STRAWBERRY,,,METRO,3
-85.7292745489718,38.2466472033004,BAXTER,HULL,US 31E,16.185,KYTC,2
-85.695511801383,38.225290990082,BARDSTOWN,PRINCETON,US 31E,,KYTC,2
-85.7494648291255,38.2467110360756,FLOYD,GRAY,,,METRO,3
-85.5410530553441,38.2486863850894,LEPANTO,MADISON,,,KYTC,3
-85.8943464250364,38.1107512639907,ASHBY,GREENBELT,KY-1934,1.9,KYTC,1
-85.7051723987096,38.2309221905519,BARDSTOWN,BONNYCASTLE,US 31E,,KYTC,2
-85.6100549715624,38.2652914963466,LYNDON,HERR,KY-2050,0.551,KYTC,3
-85.8036826009903,38.249741180851,BROADWAY,31ST,,,METRO,3
-85.7327657823192,38.2296755317455,ELLISON,ST MICHAEL,,,METRO,3
-85.6987420246372,38.226968375797,BARDSTOWN,RICHMOND,US 31E,13.966,KYTC,2
-85.7280848362439,38.2559532843831,CABEL,STORY,US 42 ,0.272,KYTC,3
-85.7605935753549,38.2527304178895,CEDAR,6TH,,,METRO,3
-85.7204232198642,38.238112786514,BARDSTOWN,GRINSTEAD,US 31E,16.185,KYTC,2
-85.7160161447845,38.235686325962,BARDSTOWN,LONGEST,US 31E,15.565,KYTC,2
-85.7723389487209,38.161327740807,3RD,KENWOOD,,,METRO,3
-85.5434996781177,38.2492196086532,OLD HARRODS CREEK,WILLOW STONE,,,KYTC,3
-85.6277379833176,38.145037077215,FEGENBUSH,NORLYNN,KY-864,5.182,KYTC,3
-85.7505670006143,38.2447662243028,FLOYD,JACOB,,,METRO,3
-85.7067289308915,38.2313120805494,BARDSTOWN,STEVENS,US 31E,14.5,KYTC,2
-85.7372940334399,38.2329219909094,OAK,SWAN,,,METRO,3
-85.7245156147329,38.2405313376962,BAXTER,HIGHLAND,US 31E,,KYTC,2
-85.7585485259116,38.2547164534353,COURT,5TH,,,METRO,3
-85.6272272742086,38.3084225725045,U S HIGHWAY 42,WOODSTONE,US-42,8.25,KYTC,3
-85.887521162262,38.1395638276929,GREENBELT,GLOBAL,KY-1934,3.908,KYTC,1
-85.6766737569319,38.1783673252048,INDIAN,JENNINGS,,,METRO,3
-85.8293072664296,38.2506130142883,BROADWAY,SHAWNEE PARK ENTRANCE,,,METRO,3
-85.7836584630904,38.2450646119875,BRECKINRIDGE,DIXIE,,,METRO,4
-85.7490442754536,38.2491135018625,FLOYD,ABRAHAM FLEXNER,,,METRO,3
-85.7042380194099,38.2304928088053,BARDSTOWN,BONNYCASTLE,US 31E,,KYTC,2
-85.7647962867233,38.2519408892415,8TH,MUHAMMAD ALI,,,METRO,3
-85.7001317741198,38.2278545147864,BARDSTOWN,ROANOKE,US 31E,,KYTC,2
-85.8052590011876,38.1727166590949,ESTATE,GAGEL,,,METRO,3
-85.5364186484776,38.2594350958964,EVERGREEN,WOODLAND,,,METRO,3
-85.7253795580811,38.2416700831209,BAXTER,MORTON,US 31E,15.738,KYTC,2
-85.6894507944637,38.1293035385233,BLUE LICK,FOREMAN,KY-1450,3.1,KYTC,1
-85.7011025928633,38.22848097989,BARDSTOWN,SPEED,US 31E,,KYTC,2
-85.7602128938264,38.2548649003905,CONGRESS,COURT,,,METRO,3
-85.7593652280428,38.1055498369004,MANSLICK,MITCHELL HILL,KY-2055,1.416,KYTC,3
-85.7239710401501,38.254128398109,MAIN,MELLWOOD,US 42,0.459,KYTC,3
-85.8012012237063,38.2305637930331,HILL,28TH,,,METRO,3
-85.7116004678236,38.233254499101,BARDSTOWN,EDGELAND,US 31E,,KYTC,2
-85.6963214829521,38.2256433297368,BARDSTOWN,BOULEVARD NAPOLEON,US 31E,,KYTC,2
-85.8073501865495,38.2555617278827,LOUIS COLEMAN JR,VERMONT,,,METRO,3
-85.7195613739217,38.2604618898687,BROWNSBORO,STORY,US 42,0.83,KYTC,3
-85.7450383986498,38.2483945086779,CHESTNUT,JACKSON,KY 61,12.486,KYTC,3
-85.6976199257629,38.2262570855858,ALFRESCO,BARDSTOWN,US 31E,,KYTC,2
-85.7144790102288,38.2348418338262,BARDSTOWN,CHEROKEE,US 31E,,KYTC,2
-85.6123065900984,38.2688142881853,HERR,WESTLYNNE,,,METRO,3
-85.8853669037762,38.1013380408384,JANNA,MARILEE,,,METRO,3
-85.6679139438455,38.2982372995329,RIVER,WATERGLEN,,,METRO,3
-85.7285353793857,38.2457024607725,BAXTER,ROGERS,US 31E,16.185,KYTC,2
-85.7292284153429,38.2493835067114,COOPER,LEXINGTON,,,METRO,4
-85.7264535368426,38.2430250348384,BAXTER,BRECKINRIDGE,US 31E,16.185,KYTC,2
-85.7015658522744,38.2287833175023,BARDSTOWN,DEER PARK,US 31E,14.174,KYTC,2
-85.7100131317791,38.2323798047445,BARDSTOWN,EASTERN,US 31E,,KYTC,2
-85.5702878686248,38.167621917563,BILLTOWN,MARY DELL,KY-1819,,KYTC,3
-85.5297115774621,38.229213429657,ELLINGSWORTH,TUCKER STATION,,,METRO,3
-85.719270956101,38.2374750715636,BARDSTOWN,PATTERSON,US 31E,15.3,KYTC,2
-85.7178496991632,38.2366962137867,BARDSTOWN,BEECHWOOD,US 31E,,KYTC,2
-85.7274264191204,38.2442760120502,BAXTER,BROADWAY,US 31E,16.185,KYTC,2
-85.8647141001222,38.0876512847921,DEERING HEIGHTS,WOODRIDGE,,,KYTC,3
-85.6514048710067,38.2525714020191,FAIRFAX,SHELBYVILLE,US-60,3.8,KYTC,3
-85.7237597922785,38.2399430307035,BARDSTOWN,BAXTER,US 31E,,KYTC,2
-85.7241678195866,38.2402153589623,BARDSTOWN,BAXTER,US 31E,,KYTC,2
-85.7130809690377,38.2340703554777,BARDSTOWN,MIDLAND,US 31E,14.897,KYTC,2
-85.8136294597597,38.2573767963455,AMY,MUHAMMAD ALI,,,METRO,3
-85.7180808737716,38.2602946819187,BROWNSBORO,MELLWOOD,US 42,0.9,KYTC,3
-85.7589383442556,38.2429982472317,GOLDEN RULE,4TH,,,METRO,3
-85.7738612668632,38.2348550261148,ORMSBY,12TH,,,KYTC,3
-85.5584171880988,38.2531957596948,DORSEY,WATERLOO,,,KYTC,3
-85.7932536138457,38.2214249065694,BERNHEIM,DIXIE,US 31,17.51,KYTC,3
-85.7086174058529,38.231740753245,BARDSTOWN,SHERWOOD,US 31E,,KYTC,2
-85.638462374442,38.2319981256642,BRECKENRIDGE LN,DUTCHMANS LN,KY-1932,3.8,KYTC,1
-85.811512023918,38.1872921439157,DIXIE HWY,I 264 WEST RAMP,US-31W,14.96,KYTC,1
-85.519245219639,38.1874677843891,TAYLORSVILLE RD,PLEASANT GLEN DR,KY-155,6.625,KYTC,1
-85.5558410364876,38.086650294306,BARDSTOWN RD,BROAD RUN PKY,US-31E,0.787,KYTC,1
-85.5656197455865,38.1007037228464,BARDSTOWN RD,THIXTON LN,US-31E,1.925,KYTC,1
-85.7535417086318,38.2548775666529,MARKET ST,S 2ND ST,US-31W,22.035,KYTC,1
-85.502956803901,38.2692603640584,OLD HENRY RD,I 265 SB RAMP,KY-3084,1.038,KYTC,1
-85.5357485183874,38.186034877007,TAYLORSVILLE RD,OLD HEADY RD,KY-155,7.55,KYTC,1
-85.6086640437575,38.2742948818017,WESTPORT RD,ORMSBY LN,KY-1447,3.04,KYTC,1
-85.5466714248327,38.1477681748832,BILLTOWN RD,I 265 RAMP,KY-1819,5.29,KYTC,1
-85.4957218454836,38.2719824490832,OLD HENRY RD,TERRA CROSSING BLVD,KY-3084,1.48,KYTC,1
-85.5510472221127,38.2968546020153,WESTPORT RD,I 265 RAMP,KY-1447,6.47,KYTC,1
-85.6145171731931,38.1258081945148,BEULAH CHURCH RD,I 265 RAMP,KY-864,3.45,KYTC,1
-85.6979417389295,38.2757337568864,ZORN AVE,I 71 RAMP,,,KYTC,1
